# 
# Header Description:
# 
# Version: v2.0.0.1 Platform: 8.0.0 Manufacturer: Xiaomi Model: MI 6
# 
# Raw,ElapsedRealtimeMillis,TimeNanos,LeapSecond,TimeUncertaintyNanos,FullBiasNanos,BiasNanos,BiasUncertaintyNanos,DriftNanosPerSecond,DriftUncertaintyNanosPerSecond,HardwareClockDiscontinuityCount,Svid,TimeOffsetNanos,State,ReceivedSvTimeNanos,ReceivedSvTimeUncertaintyNanos,Cn0DbHz,PseudorangeRateMetersPerSecond,PseudorangeRateUncertaintyMetersPerSecond,AccumulatedDeltaRangeState,AccumulatedDeltaRangeMeters,AccumulatedDeltaRangeUncertaintyMeters,CarrierFrequencyHz,CarrierCycles,CarrierPhase,CarrierPhaseUncertainty,MultipathIndicator,SnrInDb,ConstellationType,AgcDb,CarrierFrequencyHz
# 
# Fix,Provider,Latitude,Longitude,Altitude,Speed,Accuracy,(UTC)TimeInMs
# 
# Nav,Svid,Type,Status,MessageId,Sub-messageId,Data(Bytes)
# 
Raw,25323670,25326235000000,,,-1200300193358999808,0.0,1.5007466316223145E7,-0.9765624737812494,295.2389111294658,248,6,0.0,15,402319514483078,4,43.5,360.12945556640625,0.03960000351071358,0,0.0,0.0,,,,,0,,1,,
Raw,25323671,25326235000000,,,-1200300193358999808,0.0,1.5007466316223145E7,-0.9765624737812494,295.2389111294658,248,10,0.0,15,402319518943108,4,42.8,-154.66969299316406,0.04580000042915344,0,0.0,0.0,,,,,0,,1,,
Raw,25323672,25326235000000,,,-1200300193358999808,0.0,1.5007466316223145E7,-0.9765624737812494,295.2389111294658,248,13,0.0,15,402319525694767,7,37.7,616.84423828125,0.02810000069439411,0,0.0,0.0,,,,,0,,1,,
Raw,25323672,25326235000000,,,-1200300193358999808,0.0,1.5007466316223145E7,-0.9765624737812494,295.2389111294658,248,19,0.0,15,402319515316156,70,17.2,-97.58258819580078,1.1890000104904175,0,0.0,0.0,,,,,0,,1,,
Raw,25323673,25326235000000,,,-1200300193358999808,0.0,1.5007466316223145E7,-0.9765624737812494,295.2389111294658,248,2,0.0,1,148012,716,33.4,-208.4876708984375,17.935001373291016,0,0.0,0.0,,,,,0,,5,,
Raw,25323673,25326235000000,,,-1200300193358999808,0.0,1.5007466316223145E7,-0.9765624737812494,295.2389111294658,248,3,0.0,1,592118,461,30.6,-243.87095642089844,14.343501091003418,0,0.0,0.0,,,,,0,,5,,
Raw,25323674,25326235000000,,,-1200300193358999808,0.0,1.5007466316223145E7,-0.9765624737812494,295.2389111294658,248,5,0.0,1,725600,21,32.6,2.736562728881836,2.1435000896453857,0,0.0,0.0,,,,,0,,5,,
Raw,25324683,25327235000000,,,-1200300193358999808,0.0,1.5007756233215332E7,-3.9062498951249975,293.5057123758441,248,6,0.0,15,402320514481861,5,40.7,359.73468017578125,0.040400002151727676,0,0.0,0.0,,,,,0,,1,,
Raw,25324684,25327235000000,,,-1200300193358999808,0.0,1.5007756233215332E7,-3.9062498951249975,293.5057123758441,248,10,0.0,15,402320518943637,5,40.1,-155.09103393554688,0.046400003135204315,0,0.0,0.0,,,,,0,,1,,
Raw,25324685,25327235000000,,,-1200300193358999808,0.0,1.5007756233215332E7,-3.9062498951249975,293.5057123758441,248,13,0.0,15,402320525692742,5,40.7,616.4365234375,0.026900000870227814,0,0.0,0.0,,,,,0,,1,,
Raw,25324686,25327235000000,,,-1200300193358999808,0.0,1.5007756233215332E7,-3.9062498951249975,293.5057123758441,248,19,0.0,15,402320515316467,40,21.5,-97.8204574584961,0.8089999556541443,0,0.0,0.0,,,,,0,,1,,
Raw,25324686,25327235000000,,,-1200300193358999808,0.0,1.5007756233215332E7,-3.9062498951249975,293.5057123758441,248,2,0.0,1,148707,840,33.4,-208.4876708984375,19.435001373291016,0,0.0,0.0,,,,,0,,5,,
Raw,25324687,25327235000000,,,-1200300193358999808,0.0,1.5007756233215332E7,-3.9062498951249975,293.5057123758441,248,3,0.0,1,592931,561,30.6,-243.87095642089844,15.843501091003418,0,0.0,0.0,,,,,0,,5,,
Raw,25324688,25327235000000,,,-1200300193358999808,0.0,1.5007756233215332E7,-3.9062498951249975,293.5057123758441,248,5,0.0,1,725591,39,32.6,2.736562728881836,3.6435000896453857,0,0.0,0.0,,,,,0,,5,,
Raw,25325663,25328235000000,,,-1200300193358999808,0.0,1.5008052825927734E7,-3.9062498951249975,299.76276219533906,248,6,0.0,15,402321514480561,9,35.6,360.36114501953125,0.057600002735853195,0,0.0,0.0,,,,,0,,1,,
Raw,25325664,25328235000000,,,-1200300193358999808,0.0,1.5008052825927734E7,-3.9062498951249975,299.76276219533906,248,10,0.0,15,402321518944141,8,36.4,-154.4820556640625,0.06320000439882278,0,0.0,0.0,,,,,0,,1,,
Raw,25325664,25328235000000,,,-1200300193358999808,0.0,1.5008052825927734E7,-3.9062498951249975,299.76276219533906,248,13,0.0,15,402321525690704,5,41.9,617.0220947265625,0.041600000113248825,0,0.0,0.0,,,,,0,,1,,
Raw,25325665,25328235000000,,,-1200300193358999808,0.0,1.5008052825927734E7,-3.9062498951249975,299.76276219533906,248,19,0.0,15,402321515316773,24,25.1,-97.39686584472656,0.41929998993873596,0,0.0,0.0,,,,,0,,1,,
Raw,25325666,25328235000000,,,-1200300193358999808,0.0,1.5008052825927734E7,-3.9062498951249975,299.76276219533906,248,2,0.0,1,149403,974,33.4,-208.4876708984375,20.935001373291016,0,0.0,0.0,,,,,0,,5,,
Raw,25325666,25328235000000,,,-1200300193358999808,0.0,1.5008052825927734E7,-3.9062498951249975,299.76276219533906,248,3,0.0,1,593745,671,30.6,-243.87095642089844,17.3435001373291,0,0.0,0.0,,,,,0,,5,,
Raw,25325667,25328235000000,,,-1200300193358999808,0.0,1.5008052825927734E7,-3.9062498951249975,299.76276219533906,248,5,0.0,1,725582,68,32.6,2.736562728881836,5.143500328063965,0,0.0,0.0,,,,,0,,5,,
Raw,25326682,25329235000000,,,-1200300193358999808,0.0,1.5008347511291504E7,-0.9765624737812494,298.0108075870603,248,6,0.0,15,402322514479384,6,38.5,360.7883605957031,0.04110000282526016,0,0.0,0.0,,,,,0,,1,,
Raw,25326683,25329235000000,,,-1200300193358999808,0.0,1.5008347511291504E7,-0.9765624737812494,298.0108075870603,248,10,0.0,15,402322518944663,6,39.3,-154.08436584472656,0.04660000279545784,0,0.0,0.0,,,,,0,,1,,
Raw,25326683,25329235000000,,,-1200300193358999808,0.0,1.5008347511291504E7,-0.9765624737812494,298.0108075870603,248,13,0.0,15,402322525688629,5,41.9,617.3735961914062,0.026600001379847527,0,0.0,0.0,,,,,0,,1,,
Raw,25326684,25329235000000,,,-1200300193358999808,0.0,1.5008347511291504E7,-0.9765624737812494,298.0108075870603,248,19,0.0,15,402322515317096,21,26.3,-97.0340576171875,0.13369999825954437,0,0.0,0.0,,,,,0,,1,,
Raw,25326685,25329235000000,,,-1200300193358999808,0.0,1.5008347511291504E7,-0.9765624737812494,298.0108075870603,248,2,0.0,1,150098,1118,33.4,-208.4876708984375,22.435001373291016,0,0.0,0.0,,,,,0,,5,,
Raw,25326685,25329235000000,,,-1200300193358999808,0.0,1.5008347511291504E7,-0.9765624737812494,298.0108075870603,248,3,0.0,1,594558,790,30.6,-243.87095642089844,18.8435001373291,0,0.0,0.0,,,,,0,,5,,
Raw,25326686,25329235000000,,,-1200300193358999808,0.0,1.5008347511291504E7,-0.9765624737812494,298.0108075870603,248,5,0.0,1,725572,106,32.6,2.736562728881836,6.643500328063965,0,0.0,0.0,,,,,0,,5,,
Raw,25327669,25330235000000,,,-1200300193358999808,0.0,1.500864028930664E7,-1.9531249475624988,296.2588275298607,248,6,0.0,15,402323514478197,6,39.0,360.949951171875,0.0406000018119812,0,0.0,0.0,,,,,0,,1,,
Raw,25327670,25330235000000,,,-1200300193358999808,0.0,1.500864028930664E7,-1.9531249475624988,296.2588275298607,248,10,0.0,15,402323518945175,6,38.2,-153.93759155273438,0.0471000038087368,0,0.0,0.0,,,,,0,,1,,
Raw,25327670,25330235000000,,,-1200300193358999808,0.0,1.500864028930664E7,-1.9531249475624988,296.2588275298607,248,13,0.0,15,402323525686563,5,41.2,617.5167236328125,0.026600001379847527,0,0.0,0.0,,,,,0,,1,,
Raw,25327671,25330235000000,,,-1200300193358999808,0.0,1.500864028930664E7,-1.9531249475624988,296.2588275298607,248,19,0.0,15,402323515317397,27,24.5,-97.37327575683594,0.6389999985694885,0,0.0,0.0,,,,,0,,1,,
Raw,25327672,25330235000000,,,-1200300193358999808,0.0,1.500864028930664E7,-1.9531249475624988,296.2588275298607,248,2,0.0,1,150794,1271,33.4,-208.4876708984375,23.935001373291016,0,0.0,0.0,,,,,0,,5,,
Raw,25327672,25330235000000,,,-1200300193358999808,0.0,1.500864028930664E7,-1.9531249475624988,296.2588275298607,248,3,0.0,1,595372,920,30.6,-243.87095642089844,20.3435001373291,0,0.0,0.0,,,,,0,,5,,
Raw,25327673,25330235000000,,,-1200300193358999808,0.0,1.500864028930664E7,-1.9531249475624988,296.2588275298607,248,5,0.0,1,725563,154,32.6,2.736562728881836,8.143500328063965,0,0.0,0.0,,,,,0,,5,,
Raw,25328669,25331235000000,,,-1200300193358999808,0.0,1.5008931159973145E7,0.9765624737812494,294.50684747266115,248,6,0.0,15,402324514476994,6,38.0,361.18994140625,0.05610000342130661,0,0.0,0.0,,,,,0,,1,,
Raw,25328670,25331235000000,,,-1200300193358999808,0.0,1.5008931159973145E7,0.9765624737812494,294.50684747266115,248,10,0.0,15,402324518945690,6,38.7,-153.72634887695312,0.06210000440478325,0,0.0,0.0,,,,,0,,1,,
Raw,25328671,25331235000000,,,-1200300193358999808,0.0,1.5008931159973145E7,0.9765624737812494,294.50684747266115,248,13,0.0,15,402324525684509,4,42.0,617.6981201171875,0.04130000248551369,0,0.0,0.0,,,,,0,,1,,
Raw,25328672,25331235000000,,,-1200300193358999808,0.0,1.5008931159973145E7,0.9765624737812494,294.50684747266115,248,19,0.0,15,402324515317734,27,24.9,-96.40277099609375,0.6540000438690186,0,0.0,0.0,,,,,0,,1,,
Raw,25328672,25331235000000,,,-1200300193358999808,0.0,1.5008931159973145E7,0.9765624737812494,294.50684747266115,248,2,0.0,1,151489,1435,33.4,-208.4876708984375,25.435001373291016,0,0.0,0.0,,,,,0,,5,,
Raw,25328673,25331235000000,,,-1200300193358999808,0.0,1.5008931159973145E7,0.9765624737812494,294.50684747266115,248,3,0.0,1,596185,1060,30.6,-243.87095642089844,21.8435001373291,0,0.0,0.0,,,,,0,,5,,
Raw,25328673,25331235000000,,,-1200300193358999808,0.0,1.5008931159973145E7,0.9765624737812494,294.50684747266115,248,5,0.0,1,725554,213,32.6,2.736562728881836,9.643500328063965,0,0.0,0.0,,,,,0,,5,,
Raw,25329680,25332235000000,,,-1200300193358999808,0.0,1.5009220123291016E7,-2.9296875207535953,292.33564734250933,248,6,0.0,15,402325514475768,7,37.7,360.97686767578125,0.041600000113248825,0,0.0,0.0,,,,,0,,1,,
Raw,25329681,25332235000000,,,-1200300193358999808,0.0,1.5009220123291016E7,-2.9296875207535953,292.33564734250933,248,10,0.0,15,402325518946197,5,40.1,-153.94223022460938,0.046400003135204315,0,0.0,0.0,,,,,0,,1,,
Raw,25329681,25332235000000,,,-1200300193358999808,0.0,1.5009220123291016E7,-2.9296875207535953,292.33564734250933,248,13,0.0,15,402325525682455,4,43.0,617.4624633789062,0.026100000366568565,0,0.0,0.0,,,,,0,,1,,
Raw,25329682,25332235000000,,,-1200300193358999808,0.0,1.5009220123291016E7,-2.9296875207535953,292.33564734250933,248,19,0.0,15,402325515318030,21,26.7,-96.98448944091797,0.13369999825954437,0,0.0,0.0,,,,,0,,1,,
Raw,25329682,25332235000000,,,-1200300193358999808,0.0,1.5009220123291016E7,-2.9296875207535953,292.33564734250933,248,2,0.0,1,152184,1609,33.4,-208.4876708984375,26.935001373291016,0,0.0,0.0,,,,,0,,5,,
Raw,25329683,25332235000000,,,-1200300193358999808,0.0,1.5009220123291016E7,-2.9296875207535953,292.33564734250933,248,3,0.0,1,596999,1209,30.6,-243.87095642089844,23.3435001373291,0,0.0,0.0,,,,,0,,5,,
Raw,25329684,25332235000000,,,-1200300193358999808,0.0,1.5009220123291016E7,-2.9296875207535953,292.33564734250933,248,5,0.0,1,725545,281,32.6,2.736562728881836,11.143500328063965,0,0.0,0.0,,,,,0,,5,,
Raw,25330667,25333235000000,,,-1200300193358999808,0.0,1.5009515762329102E7,-2.9296875207535953,299.01191723495646,248,6,0.0,15,402326514474599,7,37.8,361.51495361328125,0.041600000113248825,0,0.0,0.0,,,,,0,,1,,
Raw,25330668,25333235000000,,,-1200300193358999808,0.0,1.5009515762329102E7,-2.9296875207535953,299.01191723495646,248,10,0.0,15,402326518946691,9,35.7,-153.4329833984375,0.048600003123283386,0,0.0,0.0,,,,,0,,1,,
Raw,25330668,25333235000000,,,-1200300193358999808,0.0,1.5009515762329102E7,-2.9296875207535953,299.01191723495646,248,13,0.0,15,402326525680397,5,41.0,617.9859619140625,0.026600001379847527,0,0.0,0.0,,,,,0,,1,,
Raw,25330669,25333235000000,,,-1200300193358999808,0.0,1.5009515762329102E7,-2.9296875207535953,299.01191723495646,248,19,0.0,15,402326515318343,31,23.4,-96.5264663696289,0.7489999532699585,0,0.0,0.0,,,,,0,,1,,
Raw,25330669,25333235000000,,,-1200300193358999808,0.0,1.5009515762329102E7,-2.9296875207535953,299.01191723495646,248,2,0.0,1,152880,1793,33.4,-208.4876708984375,28.435001373291016,0,0.0,0.0,,,,,0,,5,,
Raw,25330670,25333235000000,,,-1200300193358999808,0.0,1.5009515762329102E7,-2.9296875207535953,299.01191723495646,248,3,0.0,1,597812,1369,30.6,-243.87095642089844,24.843502044677734,0,0.0,0.0,,,,,0,,5,,
Raw,25330671,25333235000000,,,-1200300193358999808,0.0,1.5009515762329102E7,-2.9296875207535953,299.01191723495646,248,5,0.0,1,725536,360,32.6,2.736562728881836,12.643500328063965,0,0.0,0.0,,,,,0,,5,,
Raw,25331668,25334235000000,,,-1200300193358999808,0.0,1.5009809494018555E7,3.9062498951249975,297.25996262667775,248,6,0.0,15,402327514473411,5,41.1,362.5206298828125,0.04010000079870224,0,0.0,0.0,,,,,0,,1,,
Raw,25331669,25334235000000,,,-1200300193358999808,0.0,1.5009809494018555E7,3.9062498951249975,297.25996262667775,248,10,0.0,15,402327518947199,8,36.4,-152.43832397460938,0.04820000380277634,0,0.0,0.0,,,,,0,,1,,
Raw,25331670,25334235000000,,,-1200300193358999808,0.0,1.5009809494018555E7,3.9062498951249975,297.25996262667775,248,13,0.0,15,402327525678295,7,37.5,618.9240112304688,0.02810000069439411,0,0.0,0.0,,,,,0,,1,,
Raw,25331670,25334235000000,,,-1200300193358999808,0.0,1.5009809494018555E7,3.9062498951249975,297.25996262667775,248,19,0.0,15,402327515318659,31,23.8,-95.71771240234375,0.6889999508857727,0,0.0,0.0,,,,,0,,1,,
Raw,25331671,25334235000000,,,-1200300193358999808,0.0,1.5009809494018555E7,3.9062498951249975,297.25996262667775,248,2,0.0,1,153575,1987,33.4,-208.4876708984375,29.935001373291016,0,0.0,0.0,,,,,0,,5,,
Raw,25331672,25334235000000,,,-1200300193358999808,0.0,1.5009809494018555E7,3.9062498951249975,297.25996262667775,248,3,0.0,1,598626,1539,30.6,-243.87095642089844,26.343502044677734,0,0.0,0.0,,,,,0,,5,,
Raw,25331672,25334235000000,,,-1200300193358999808,0.0,1.5009809494018555E7,3.9062498951249975,297.25996262667775,248,5,0.0,1,725527,448,32.6,2.736562728881836,14.143500328063965,0,0.0,0.0,,,,,0,,5,,
Raw,25332672,25335235000000,,,-1200300193358999808,0.0,1.5010101318359375E7,-2.9296875207535953,295.50798256947814,248,6,0.0,15,402328514472197,5,41.1,361.2639465332031,0.04010000079870224,0,0.0,0.0,,,,,0,,1,,
Raw,25332672,25335235000000,,,-1200300193358999808,0.0,1.5010101318359375E7,-2.9296875207535953,295.50798256947814,248,10,0.0,15,402328518947725,8,36.8,-153.71078491210938,0.04820000380277634,0,0.0,0.0,,,,,0,,1,,
Raw,25332673,25335235000000,,,-1200300193358999808,0.0,1.5010101318359375E7,-2.9296875207535953,295.50798256947814,248,13,0.0,15,402328525676210,7,37.7,617.6085815429688,0.02810000069439411,0,0.0,0.0,,,,,0,,1,,
Raw,25332674,25335235000000,,,-1200300193358999808,0.0,1.5010101318359375E7,-2.9296875207535953,295.50798256947814,248,19,0.0,15,402328515319000,31,23.0,-97.05928802490234,0.7489999532699585,0,0.0,0.0,,,,,0,,1,,
Raw,25332674,25335235000000,,,-1200300193358999808,0.0,1.5010101318359375E7,-2.9296875207535953,295.50798256947814,248,2,0.0,1,154271,2191,33.4,-208.4876708984375,31.435001373291016,0,0.0,0.0,,,,,0,,5,,
Raw,25332675,25335235000000,,,-1200300193358999808,0.0,1.5010101318359375E7,-2.9296875207535953,295.50798256947814,248,3,0.0,1,599439,1718,30.6,-243.87095642089844,27.843502044677734,0,0.0,0.0,,,,,0,,5,,
Raw,25332675,25335235000000,,,-1200300193358999808,0.0,1.5010101318359375E7,-2.9296875207535953,295.50798256947814,248,5,0.0,1,725518,547,32.6,2.736562728881836,15.643500328063965,0,0.0,0.0,,,,,0,,5,,
Raw,25333660,25336235000000,,,-1200300193358999808,0.0,1.5010392189025879E7,-7.812499790249995,293.75600251227854,248,6,0.0,15,402329514470979,5,41.7,360.1874694824219,0.05510000139474869,0,0.0,0.0,,,,,0,,1,,
Raw,25333660,25336235000000,,,-1200300193358999808,0.0,1.5010392189025879E7,-7.812499790249995,293.75600251227854,248,10,0.0,15,402329518948231,6,38.8,-154.8216552734375,0.06210000440478325,0,0.0,0.0,,,,,0,,1,,
Raw,25333660,25336235000000,,,-1200300193358999808,0.0,1.5010392189025879E7,-7.812499790249995,293.75600251227854,248,13,0.0,15,402329525674184,6,39.4,616.4873046875,0.02710000053048134,0,0.0,0.0,,,,,0,,1,,
Raw,25333661,25336235000000,,,-1200300193358999808,0.0,1.5010392189025879E7,-7.812499790249995,293.75600251227854,248,19,0.0,15,402329515319278,27,24.8,-97.91560363769531,0.6540000438690186,0,0.0,0.0,,,,,0,,1,,
Raw,25333661,25336235000000,,,-1200300193358999808,0.0,1.5010392189025879E7,-7.812499790249995,293.75600251227854,248,2,0.0,1,154966,2405,33.4,-208.4876708984375,32.935001373291016,0,0.0,0.0,,,,,0,,5,,
Raw,25333661,25336235000000,,,-1200300193358999808,0.0,1.5010392189025879E7,-7.812499790249995,293.75600251227854,248,3,0.0,1,600252,1908,30.6,-243.87095642089844,29.343502044677734,0,0.0,0.0,,,,,0,,5,,
Raw,25333662,25336235000000,,,-1200300193358999808,0.0,1.5010392189025879E7,-7.812499790249995,293.75600251227854,248,5,0.0,1,725508,655,32.6,2.736562728881836,17.14350128173828,0,0.0,0.0,,,,,0,,5,,
Raw,25334652,25337235000000,,,-1200300193358999808,0.0,1.5010688781738281E7,-7.812499790249995,300.0067918972475,248,6,0.0,15,402330514469790,5,41.4,360.9126892089844,0.05510000139474869,0,0.0,0.0,,,,,0,,1,,
Raw,25334653,25337235000000,,,-1200300193358999808,0.0,1.5010688781738281E7,-7.812499790249995,300.0067918972475,248,10,0.0,15,402330518948743,7,37.8,-154.13272094726562,0.06260000169277191,0,0.0,0.0,,,,,0,,1,,
Raw,25334653,25337235000000,,,-1200300193358999808,0.0,1.5010688781738281E7,-7.812499790249995,300.0067918972475,248,13,0.0,15,402330525672120,6,38.7,617.204345703125,0.0276000015437603,0,0.0,0.0,,,,,0,,1,,
Raw,25334653,25337235000000,,,-1200300193358999808,0.0,1.5010688781738281E7,-7.812499790249995,300.0067918972475,248,19,0.0,15,402330515319597,27,24.6,-97.09734344482422,0.6540000438690186,0,0.0,0.0,,,,,0,,1,,
Raw,25334653,25337235000000,,,-1200300193358999808,0.0,1.5010688781738281E7,-7.812499790249995,300.0067918972475,248,2,0.0,1,155662,2628,33.4,-208.4876708984375,34.435001373291016,0,0.0,0.0,,,,,0,,5,,
Raw,25334654,25337235000000,,,-1200300193358999808,0.0,1.5010688781738281E7,-7.812499790249995,300.0067918972475,248,3,0.0,1,601066,2108,30.6,-243.87095642089844,30.843502044677734,0,0.0,0.0,,,,,0,,5,,
Raw,25334654,25337235000000,,,-1200300193358999808,0.0,1.5010688781738281E7,-7.812499790249995,300.0067918972475,248,5,0.0,1,725499,774,32.6,2.736562728881836,18.64350128173828,0,0.0,0.0,,,,,0,,5,,
Raw,25335648,25338235000000,,,-1200300193358999808,0.0,1.501098346710205E7,-2.9296875207535953,298.2610722745739,248,6,0.0,15,402331514468585,5,41.8,361.8360900878906,0.04010000079870224,0,0.0,0.0,,,,,0,,1,,
Raw,25335649,25338235000000,,,-1200300193358999808,0.0,1.501098346710205E7,-2.9296875207535953,298.2610722745739,248,10,0.0,15,402331518949259,7,37.4,-153.21824645996094,0.047600001096725464,0,0.0,0.0,,,,,0,,1,,
Raw,25335649,25338235000000,,,-1200300193358999808,0.0,1.501098346710205E7,-2.9296875207535953,298.2610722745739,248,13,0.0,15,402331525670047,6,38.3,618.0660400390625,0.0276000015437603,0,0.0,0.0,,,,,0,,1,,
Raw,25335649,25338235000000,,,-1200300193358999808,0.0,1.501098346710205E7,-2.9296875207535953,298.2610722745739,248,19,0.0,15,402331515319918,27,24.3,-96.62161254882812,0.6889999508857727,0,0.0,0.0,,,,,0,,1,,
Raw,25335650,25338235000000,,,-1200300193358999808,0.0,1.501098346710205E7,-2.9296875207535953,298.2610722745739,248,2,0.0,1,156357,2862,33.4,-208.4876708984375,35.935001373291016,0,0.0,0.0,,,,,0,,5,,
Raw,25335650,25338235000000,,,-1200300193358999808,0.0,1.501098346710205E7,-2.9296875207535953,298.2610722745739,248,3,0.0,1,601879,2317,30.6,-243.87095642089844,32.343502044677734,0,0.0,0.0,,,,,0,,5,,
Raw,25335650,25338235000000,,,-1200300193358999808,0.0,1.501098346710205E7,-2.9296875207535953,298.2610722745739,248,5,0.0,1,725490,902,32.6,2.736562728881836,20.14350128173828,0,0.0,0.0,,,,,0,,5,,
Raw,25336656,25339235000000,,,-1200300193358999808,0.0,1.5011276245117188E7,-3.9062498951249975,296.50909221737436,248,6,0.0,15,402332514467384,5,41.9,361.53265380859375,0.04010000079870224,0,0.0,0.0,,,,,0,,1,,
Raw,25336657,25339235000000,,,-1200300193358999808,0.0,1.5011276245117188E7,-3.9062498951249975,296.50909221737436,248,10,0.0,15,402332518949764,6,38.0,-153.54405212402344,0.0471000038087368,0,0.0,0.0,,,,,0,,1,,
Raw,25336658,25339235000000,,,-1200300193358999808,0.0,1.5011276245117188E7,-3.9062498951249975,296.50909221737436,248,13,0.0,15,402332525668000,7,37.6,617.7229614257812,0.02810000069439411,0,0.0,0.0,,,,,0,,1,,
Raw,25336658,25339235000000,,,-1200300193358999808,0.0,1.5011276245117188E7,-3.9062498951249975,296.50909221737436,248,19,0.0,15,402332515320218,24,25.3,-96.7750244140625,0.4043000042438507,0,0.0,0.0,,,,,0,,1,,
Raw,25337648,25340235000000,,,-1200300193358999808,0.0,1.5011568069458008E7,-4.882812468316094,294.7571376090956,248,6,0.0,15,402333514466153,5,41.2,360.95526123046875,0.04010000079870224,0,0.0,0.0,,,,,0,,1,,
Raw,25337648,25340235000000,,,-1200300193358999808,0.0,1.5011568069458008E7,-4.882812468316094,294.7571376090956,248,10,0.0,15,402333518950279,6,38.6,-154.142822265625,0.0471000038087368,0,0.0,0.0,,,,,0,,1,,
Raw,25337648,25340235000000,,,-1200300193358999808,0.0,1.5011568069458008E7,-4.882812468316094,294.7571376090956,248,13,0.0,15,402333525665942,6,39.5,617.1127319335938,0.02710000053048134,0,0.0,0.0,,,,,0,,1,,
Raw,25337648,25340235000000,,,-1200300193358999808,0.0,1.5011568069458008E7,-4.882812468316094,294.7571376090956,248,19,0.0,15,402333515320618,24,25.0,-97.41069793701172,0.4043000042438507,0,0.0,0.0,,,,,0,,1,,
Raw,25337648,25340235000000,,,-1200300193358999808,0.0,1.5011568069458008E7,-4.882812468316094,294.7571376090956,248,2,0.0,1,111250,20,31.2,-139.67031860351562,1.9550000429153442,0,0.0,0.0,,,,,0,,5,,
Raw,25337648,25340235000000,,,-1200300193358999808,0.0,1.5011568069458008E7,-4.882812468316094,294.7571376090956,248,3,0.0,1,603506,2767,30.6,-243.87095642089844,35.343502044677734,0,0.0,0.0,,,,,0,,5,,
Raw,25337649,25340235000000,,,-1200300193358999808,0.0,1.5011568069458008E7,-4.882812468316094,294.7571376090956,248,5,0.0,1,725472,1189,32.6,2.736562728881836,23.14350128173828,0,0.0,0.0,,,,,0,,5,,
Raw,25338647,25341235000000,,,-1200300193358999808,0.0,1.5011857986450195E7,-1.9531249475624988,292.9863762483181,248,6,0.0,15,402334514464936,5,41.0,361.4326477050781,0.04010000079870224,0,0.0,0.0,,,,,0,,1,,
Raw,25338647,25341235000000,,,-1200300193358999808,0.0,1.5011857986450195E7,-1.9531249475624988,292.9863762483181,248,10,0.0,15,402334518950790,5,41.1,-153.68832397460938,0.04610000178217888,0,0.0,0.0,,,,,0,,1,,
Raw,25338648,25341235000000,,,-1200300193358999808,0.0,1.5011857986450195E7,-1.9531249475624988,292.9863762483181,248,13,0.0,15,402334525663893,5,41.5,617.5457153320312,0.026600001379847527,0,0.0,0.0,,,,,0,,1,,
Raw,25338648,25341235000000,,,-1200300193358999808,0.0,1.5011857986450195E7,-1.9531249475624988,292.9863762483181,248,19,0.0,15,402334515320935,24,25.8,-96.97828674316406,0.4043000042438507,0,0.0,0.0,,,,,0,,1,,
Raw,25338648,25341235000000,,,-1200300193358999808,0.0,1.5011857986450195E7,-1.9531249475624988,292.9863762483181,248,2,0.0,1,111715,37,31.2,-139.67031860351562,3.455000162124634,0,0.0,0.0,,,,,0,,5,,
Raw,25338648,25341235000000,,,-1200300193358999808,0.0,1.5011857986450195E7,-1.9531249475624988,292.9863762483181,248,3,0.0,1,604320,3007,30.6,-243.87095642089844,36.843502044677734,0,0.0,0.0,,,,,0,,5,,
Raw,25338649,25341235000000,,,-1200300193358999808,0.0,1.5011857986450195E7,-1.9531249475624988,292.9863762483181,248,5,0.0,1,725463,1347,32.6,2.736562728881836,24.64350128173828,0,0.0,0.0,,,,,0,,5,,
Raw,25339681,25342235000000,,,-1200300193358999808,0.0,1.5012153625488281E7,-1.9531249475624988,299.24342606781306,248,6,0.0,15,402335514463719,5,40.0,362.9957580566406,0.055400002747774124,0,0.0,0.0,,,,,0,,1,,
Raw,25339682,25342235000000,,,-1200300193358999808,0.0,1.5012153625488281E7,-1.9531249475624988,299.24342606781306,248,10,0.0,15,402335518951291,5,40.6,-152.12710571289062,0.06140000373125076,0,0.0,0.0,,,,,0,,1,,
Raw,25339682,25342235000000,,,-1200300193358999808,0.0,1.5012153625488281E7,-1.9531249475624988,299.24342606781306,248,13,0.0,15,402335525661838,5,40.6,619.0831298828125,0.04190000146627426,0,0.0,0.0,,,,,0,,1,,
Raw,25339683,25342235000000,,,-1200300193358999808,0.0,1.5012153625488281E7,-1.9531249475624988,299.24342606781306,248,19,0.0,15,402335515321233,31,23.7,-95.4322738647461,0.7039999961853027,0,0.0,0.0,,,,,0,,1,,
Raw,25339683,25342235000000,,,-1200300193358999808,0.0,1.5012153625488281E7,-1.9531249475624988,299.24342606781306,248,2,0.0,1,112181,64,31.2,-139.67031860351562,4.955000400543213,0,0.0,0.0,,,,,0,,5,,
Raw,25339684,25342235000000,,,-1200300193358999808,0.0,1.5012153625488281E7,-1.9531249475624988,299.24342606781306,248,3,0.0,1,605133,3256,30.6,-243.87095642089844,38.343502044677734,0,0.0,0.0,,,,,0,,5,,
Raw,25339685,25342235000000,,,-1200300193358999808,0.0,1.5012153625488281E7,-1.9531249475624988,299.24342606781306,248,5,0.0,1,725454,1516,32.6,2.736562728881836,26.14350128173828,0,0.0,0.0,,,,,0,,5,,
Raw,25340684,25343235000000,,,-1200300193358999808,0.0,1.5012447357177734E7,2.9296875207535953,297.50396687966537,248,6,0.0,15,402336514462502,6,38.8,363.6155090332031,0.04110000282526016,0,0.0,0.0,,,,,0,,1,,
Raw,25340685,25343235000000,,,-1200300193358999808,0.0,1.5012447357177734E7,2.9296875207535953,297.50396687966537,248,10,0.0,15,402336518951805,6,39.1,-151.54286193847656,0.04660000279545784,0,0.0,0.0,,,,,0,,1,,
Raw,25340686,25343235000000,,,-1200300193358999808,0.0,1.5012447357177734E7,2.9296875207535953,297.50396687966537,248,13,0.0,15,402336525659769,5,40.6,619.6524658203125,0.026900000870227814,0,0.0,0.0,,,,,0,,1,,
Raw,25340686,25343235000000,,,-1200300193358999808,0.0,1.5012447357177734E7,2.9296875207535953,297.50396687966537,248,19,0.0,15,402336515321553,35,22.7,-94.4427490234375,0.7489999532699585,0,0.0,0.0,,,,,0,,1,,
Raw,25340687,25343235000000,,,-1200300193358999808,0.0,1.5012447357177734E7,2.9296875207535953,297.50396687966537,248,2,0.0,1,112647,101,31.2,-139.67031860351562,6.455000400543213,0,0.0,0.0,,,,,0,,5,,
Raw,25340688,25343235000000,,,-1200300193358999808,0.0,1.5012447357177734E7,2.9296875207535953,297.50396687966537,248,3,0.0,1,605947,3516,30.6,-243.87095642089844,39.843502044677734,0,0.0,0.0,,,,,0,,5,,
Raw,25340688,25343235000000,,,-1200300193358999808,0.0,1.5012447357177734E7,2.9296875207535953,297.50396687966537,248,5,0.0,1,725445,1695,32.6,2.736562728881836,27.64350128173828,0,0.0,0.0,,,,,0,,5,,
Raw,25341680,25344235000000,,,-1200300193358999808,0.0,1.5012740135192871E7,0.9765624737812494,295.75201227138666,248,6,0.0,15,402337514461301,6,39.2,363.4289855957031,0.0406000018119812,0,0.0,0.0,,,,,0,,1,,
Raw,25341680,25344235000000,,,-1200300193358999808,0.0,1.5012740135192871E7,0.9765624737812494,295.75201227138666,248,10,0.0,15,402337518952309,5,40.1,-151.77198791503906,0.046400003135204315,0,0.0,0.0,,,,,0,,1,,
Raw,25341681,25344235000000,,,-1200300193358999808,0.0,1.5012740135192871E7,0.9765624737812494,295.75201227138666,248,13,0.0,15,402337525657696,5,41.3,619.3897094726562,0.026600001379847527,0,0.0,0.0,,,,,0,,1,,
Raw,25341682,25344235000000,,,-1200300193358999808,0.0,1.5012740135192871E7,0.9765624737812494,295.75201227138666,248,19,0.0,15,402337515321798,35,22.3,-95.47985076904297,0.8089999556541443,0,0.0,0.0,,,,,0,,1,,
Raw,25341682,25344235000000,,,-1200300193358999808,0.0,1.5012740135192871E7,0.9765624737812494,295.75201227138666,248,2,0.0,1,113113,149,31.2,-139.67031860351562,7.955000400543213,0,0.0,0.0,,,,,0,,5,,
Raw,25341683,25344235000000,,,-1200300193358999808,0.0,1.5012740135192871E7,0.9765624737812494,295.75201227138666,248,3,0.0,1,606760,3786,30.6,-243.87095642089844,41.343502044677734,0,0.0,0.0,,,,,0,,5,,
Raw,25341683,25344235000000,,,-1200300193358999808,0.0,1.5012740135192871E7,0.9765624737812494,295.75201227138666,248,5,0.0,1,725435,1883,32.6,2.736562728881836,29.14350128173828,0,0.0,0.0,,,,,0,,5,,
Raw,25342658,25345235000000,,,-1200300193358999808,0.0,1.5013031005859375E7,3.9062498951249975,294.00003221418706,248,6,0.0,15,402338514460120,6,39.5,363.5858459472656,0.0406000018119812,0,0.0,0.0,,,,,0,,1,,
Raw,25342658,25345235000000,,,-1200300193358999808,0.0,1.5013031005859375E7,3.9062498951249975,294.00003221418706,248,10,0.0,15,402338518952821,6,39.6,-151.6094207763672,0.04660000279545784,0,0.0,0.0,,,,,0,,1,,
Raw,25342658,25345235000000,,,-1200300193358999808,0.0,1.5013031005859375E7,3.9062498951249975,294.00003221418706,248,13,0.0,15,402338525655623,5,40.3,619.544921875,0.026900000870227814,0,0.0,0.0,,,,,0,,1,,
Raw,25342658,25345235000000,,,-1200300193358999808,0.0,1.5013031005859375E7,3.9062498951249975,294.00003221418706,248,19,0.0,15,402338515322126,46,20.7,-95.2610092163086,0.8689999580383301,0,0.0,0.0,,,,,0,,1,,
Raw,25342658,25345235000000,,,-1200300193358999808,0.0,1.5013031005859375E7,3.9062498951249975,294.00003221418706,248,2,0.0,1,113579,206,31.2,-139.67031860351562,9.455000877380371,0,0.0,0.0,,,,,0,,5,,
Raw,25342659,25345235000000,,,-1200300193358999808,0.0,1.5013031005859375E7,3.9062498951249975,294.00003221418706,248,3,0.0,1,607574,4066,30.6,-243.87095642089844,42.843502044677734,0,0.0,0.0,,,,,0,,5,,
Raw,25342659,25345235000000,,,-1200300193358999808,0.0,1.5013031005859375E7,3.9062498951249975,294.00003221418706,248,5,0.0,1,725426,2082,32.6,2.736562728881836,30.64350128173828,0,0.0,0.0,,,,,0,,5,,
Raw,25343688,25346235000000,,,-1200300193358999808,0.0,1.5013327598571777E7,3.9062498951249975,300.25082159915604,248,6,0.0,15,402339514458911,6,38.9,363.24627685546875,0.04110000282526016,0,0.0,0.0,,,,,0,,1,,
Raw,25343689,25346235000000,,,-1200300193358999808,0.0,1.5013327598571777E7,3.9062498951249975,300.25082159915604,248,10,0.0,15,402339518953323,6,39.9,-151.9700469970703,0.04660000279545784,0,0.0,0.0,,,,,0,,1,,
Raw,25343690,25346235000000,,,-1200300193358999808,0.0,1.5013327598571777E7,3.9062498951249975,300.25082159915604,248,13,0.0,15,402339525653554,6,39.2,619.1410522460938,0.02710000053048134,0,0.0,0.0,,,,,0,,1,,
Raw,25343690,25346235000000,,,-1200300193358999808,0.0,1.5013327598571777E7,3.9062498951249975,300.25082159915604,248,19,0.0,15,402339515322439,61,18.9,-94.08119201660156,1.0190000534057617,0,0.0,0.0,,,,,0,,1,,
Raw,25343691,25346235000000,,,-1200300193358999808,0.0,1.5013327598571777E7,3.9062498951249975,300.25082159915604,248,2,0.0,1,114045,273,31.2,-139.67031860351562,10.955000877380371,0,0.0,0.0,,,,,0,,5,,
Raw,25343691,25346235000000,,,-1200300193358999808,0.0,1.5013327598571777E7,3.9062498951249975,300.25082159915604,248,3,0.0,1,608387,4355,30.6,-243.87095642089844,44.343502044677734,0,0.0,0.0,,,,,0,,5,,
Raw,25343692,25346235000000,,,-1200300193358999808,0.0,1.5013327598571777E7,3.9062498951249975,300.25082159915604,248,5,0.0,1,725417,2290,32.6,2.736562728881836,32.14350128173828,0,0.0,0.0,,,,,0,,5,,
Raw,25344681,25347235000000,,,-1200300193358999808,0.0,1.5013623237609863E7,0.0,298.5051019764824,248,6,0.0,15,402340514457656,6,38.7,363.4631042480469,0.04110000282526016,0,0.0,0.0,,,,,0,,1,,
Raw,25344682,25347235000000,,,-1200300193358999808,0.0,1.5013623237609863E7,0.0,298.5051019764824,248,10,0.0,15,402340518953821,5,40.5,-151.75576782226562,0.046400003135204315,0,0.0,0.0,,,,,0,,1,,
Raw,25344683,25347235000000,,,-1200300193358999808,0.0,1.5013623237609863E7,0.0,298.5051019764824,248,13,0.0,15,402340525651491,5,40.8,619.3477172851562,0.026900000870227814,0,0.0,0.0,,,,,0,,1,,
Raw,25344684,25347235000000,,,-1200300193358999808,0.0,1.5013623237609863E7,0.0,298.5051019764824,248,19,0.0,15,402340515322817,27,24.9,-95.13732147216797,0.6389999985694885,0,0.0,0.0,,,,,0,,1,,
Raw,25344685,25347235000000,,,-1200300193358999808,0.0,1.5013623237609863E7,0.0,298.5051019764824,248,2,0.0,1,114511,350,31.2,-139.67031860351562,12.455000877380371,0,0.0,0.0,,,,,0,,5,,
Raw,25344685,25347235000000,,,-1200300193358999808,0.0,1.5013623237609863E7,0.0,298.5051019764824,248,3,0.0,1,609201,4655,30.6,-243.87095642089844,45.843502044677734,0,0.0,0.0,,,,,0,,5,,
Raw,25344686,25347235000000,,,-1200300193358999808,0.0,1.5013623237609863E7,0.0,298.5051019764824,248,5,0.0,1,725408,2509,32.6,2.736562728881836,33.64350128173828,0,0.0,0.0,,,,,0,,5,,
Raw,25345680,25348235000000,,,-1200300193358999808,0.0,1.5013916969299316E7,2.9296875207535953,296.7531219192828,248,6,0.0,15,402341514456422,6,38.1,364.0030212402344,0.04110000282526016,0,0.0,0.0,,,,,0,,1,,
Raw,25345681,25348235000000,,,-1200300193358999808,0.0,1.5013916969299316E7,2.9296875207535953,296.7531219192828,248,10,0.0,15,402341518954319,5,40.3,-151.2606201171875,0.046400003135204315,0,0.0,0.0,,,,,0,,1,,
Raw,25345681,25348235000000,,,-1200300193358999808,0.0,1.5013916969299316E7,2.9296875207535953,296.7531219192828,248,13,0.0,15,402341525649427,5,40.6,619.8338012695312,0.026900000870227814,0,0.0,0.0,,,,,0,,1,,
Raw,25345682,25348235000000,,,-1200300193358999808,0.0,1.5013916969299316E7,2.9296875207535953,296.7531219192828,248,19,0.0,15,402341515323087,21,26.3,-94.77670288085938,0.13369999825954437,0,0.0,0.0,,,,,0,,1,,
Raw,25345683,25348235000000,,,-1200300193358999808,0.0,1.5013916969299316E7,2.9296875207535953,296.7531219192828,248,2,0.0,1,114977,437,31.2,-139.67031860351562,13.955000877380371,0,0.0,0.0,,,,,0,,5,,
Raw,25345684,25348235000000,,,-1200300193358999808,0.0,1.5013916969299316E7,2.9296875207535953,296.7531219192828,248,3,0.0,1,610014,4965,30.6,-243.87095642089844,47.343502044677734,0,0.0,0.0,,,,,0,,5,,
Raw,25345684,25348235000000,,,-1200300193358999808,0.0,1.5013916969299316E7,2.9296875207535953,296.7531219192828,248,5,0.0,1,725399,2737,32.6,2.736562728881836,35.14350128173828,0,0.0,0.0,,,,,0,,5,,
Raw,25346669,25349235000000,,,-1200300193358999808,0.0,1.5014208793640137E7,3.9062498951249975,295.0011418620833,248,6,0.0,15,402342514455208,7,37.9,364.80029296875,0.041600000113248825,0,0.0,0.0,,,,,0,,1,,
Raw,25346669,25349235000000,,,-1200300193358999808,0.0,1.5014208793640137E7,3.9062498951249975,295.0011418620833,248,10,0.0,15,402342518954838,5,40.9,-150.47972106933594,0.046400003135204315,0,0.0,0.0,,,,,0,,1,,
Raw,25346670,25349235000000,,,-1200300193358999808,0.0,1.5014208793640137E7,3.9062498951249975,295.0011418620833,248,13,0.0,15,402342525647362,5,41.9,620.5958251953125,0.026600001379847527,0,0.0,0.0,,,,,0,,1,,
Raw,25346670,25349235000000,,,-1200300193358999808,0.0,1.5014208793640137E7,3.9062498951249975,295.0011418620833,248,19,0.0,15,402342515323438,21,26.8,-94.01626586914062,0.13369999825954437,0,0.0,0.0,,,,,0,,1,,
Raw,25346671,25349235000000,,,-1200300193358999808,0.0,1.5014208793640137E7,3.9062498951249975,295.0011418620833,248,2,0.0,1,115443,534,31.2,-139.67031860351562,15.455000877380371,0,0.0,0.0,,,,,0,,5,,
Raw,25346672,25349235000000,,,-1200300193358999808,0.0,1.5014208793640137E7,3.9062498951249975,295.0011418620833,248,3,0.0,1,610828,5285,30.6,-243.87095642089844,48.843502044677734,0,0.0,0.0,,,,,0,,5,,
Raw,25346672,25349235000000,,,-1200300193358999808,0.0,1.5014208793640137E7,3.9062498951249975,295.0011418620833,248,5,0.0,1,725390,2976,32.6,2.736562728881836,36.64350128173828,0,0.0,0.0,,,,,0,,5,,
Raw,25347683,25350235000000,,,-1200300193358999808,0.0,1.5014498710632324E7,5.859375041507191,293.2491872538045,248,6,0.0,15,402343514453995,6,38.4,365.19134521484375,0.04110000282526016,0,0.0,0.0,,,,,0,,1,,
Raw,25347684,25350235000000,,,-1200300193358999808,0.0,1.5014498710632324E7,5.859375041507191,293.2491872538045,248,10,0.0,15,402343518955331,5,41.1,-150.11537170410156,0.04610000178217888,0,0.0,0.0,,,,,0,,1,,
Raw,25347685,25350235000000,,,-1200300193358999808,0.0,1.5014498710632324E7,5.859375041507191,293.2491872538045,248,13,0.0,15,402343525645299,5,41.3,620.9202270507812,0.026600001379847527,0,0.0,0.0,,,,,0,,1,,
Raw,25347685,25350235000000,,,-1200300193358999808,0.0,1.5014498710632324E7,5.859375041507191,293.2491872538045,248,19,0.0,15,402343515323724,24,25.7,-93.69648742675781,0.4043000042438507,0,0.0,0.0,,,,,0,,1,,
Raw,25347686,25350235000000,,,-1200300193358999808,0.0,1.5014498710632324E7,5.859375041507191,293.2491872538045,248,2,0.0,1,115908,641,31.2,-139.67031860351562,16.954999923706055,0,0.0,0.0,,,,,0,,5,,
Raw,25347686,25350235000000,,,-1200300193358999808,0.0,1.5014498710632324E7,5.859375041507191,293.2491872538045,248,3,0.0,1,611168,5421,30.6,-243.87095642089844,49.47050094604492,0,0.0,0.0,,,,,0,,5,,
Raw,25347687,25350235000000,,,-1200300193358999808,0.0,1.5014498710632324E7,5.859375041507191,293.2491872538045,248,5,0.0,1,725381,3224,32.6,2.736562728881836,38.14350128173828,0,0.0,0.0,,,,,0,,5,,
Raw,25348683,25351235000000,,,-1200300193358999808,0.0,1.5014795303344727E7,5.859375041507191,299.4999766387735,248,6,0.0,15,402344514452823,6,39.9,364.7156677246094,0.0406000018119812,0,0.0,0.0,,,,,0,,1,,
Raw,25348684,25351235000000,,,-1200300193358999808,0.0,1.5014795303344727E7,5.859375041507191,299.4999766387735,248,10,0.0,15,402344518955833,6,39.8,-150.59579467773438,0.04660000279545784,0,0.0,0.0,,,,,0,,1,,
Raw,25348684,25351235000000,,,-1200300193358999808,0.0,1.5014795303344727E7,5.859375041507191,299.4999766387735,248,13,0.0,15,402344525643221,6,38.5,620.4255981445312,0.0276000015437603,0,0.0,0.0,,,,,0,,1,,
Raw,25348685,25351235000000,,,-1200300193358999808,0.0,1.5014795303344727E7,5.859375041507191,299.4999766387735,248,19,0.0,15,402344515324123,53,19.4,-94.9850845336914,1.0190000534057617,0,0.0,0.0,,,,,0,,1,,
Raw,25348685,25351235000000,,,-1200300193358999808,0.0,1.5014795303344727E7,5.859375041507191,299.4999766387735,248,2,0.0,1,116374,758,31.2,-139.67031860351562,18.454999923706055,0,0.0,0.0,,,,,0,,5,,
Raw,25348686,25351235000000,,,-1200300193358999808,0.0,1.5014795303344727E7,5.859375041507191,299.4999766387735,248,3,0.0,1,611168,5421,30.6,-243.87095642089844,49.47050094604492,0,0.0,0.0,,,,,0,,5,,
Raw,25348686,25351235000000,,,-1200300193358999808,0.0,1.5014795303344727E7,5.859375041507191,299.4999766387735,248,5,0.0,1,725372,3483,32.6,2.736562728881836,39.64350128173828,0,0.0,0.0,,,,,0,,5,,
Raw,25349656,25352235000000,,,-1200300193358999808,0.0,1.5015089988708496E7,0.0,297.75425701609987,248,6,0.0,15,402345514451601,6,39.7,363.0698547363281,0.0406000018119812,0,0.0,0.0,,,,,0,,1,,
Raw,25349657,25352235000000,,,-1200300193358999808,0.0,1.5015089988708496E7,0.0,297.75425701609987,248,10,0.0,15,402345518956333,6,39.1,-152.2618865966797,0.04660000279545784,0,0.0,0.0,,,,,0,,1,,
Raw,25349657,25352235000000,,,-1200300193358999808,0.0,1.5015089988708496E7,0.0,297.75425701609987,248,13,0.0,15,402345525641130,6,38.1,618.7289428710938,0.0276000015437603,0,0.0,0.0,,,,,0,,1,,
Raw,25349657,25352235000000,,,-1200300193358999808,0.0,1.5015089988708496E7,0.0,297.75425701609987,248,19,0.0,15,402345515324388,53,19.3,-95.6701431274414,1.0190000534057617,0,0.0,0.0,,,,,0,,1,,
Raw,25349658,25352235000000,,,-1200300193358999808,0.0,1.5015089988708496E7,0.0,297.75425701609987,248,2,0.0,1,116840,886,31.2,-139.67031860351562,19.955001831054688,0,0.0,0.0,,,,,0,,5,,
Raw,25349658,25352235000000,,,-1200300193358999808,0.0,1.5015089988708496E7,0.0,297.75425701609987,248,3,0.0,1,611168,5421,30.6,-243.87095642089844,49.47050094604492,0,0.0,0.0,,,,,0,,5,,
Raw,25349658,25352235000000,,,-1200300193358999808,0.0,1.5015089988708496E7,0.0,297.75425701609987,248,5,0.0,1,725362,3751,32.6,2.736562728881836,41.14350128173828,0,0.0,0.0,,,,,0,,5,,
Raw,25350682,25353235000000,,,-1200300193358999808,0.0,1.5015382766723633E7,-0.9765624737812494,296.00227695890027,248,6,0.0,15,402346514450389,6,38.8,363.2023010253906,0.04110000282526016,0,0.0,0.0,,,,,0,,1,,
Raw,25350683,25353235000000,,,-1200300193358999808,0.0,1.5015382766723633E7,-0.9765624737812494,296.00227695890027,248,10,0.0,15,402346518956844,6,38.2,-152.1439971923828,0.0471000038087368,0,0.0,0.0,,,,,0,,1,,
Raw,25350683,25353235000000,,,-1200300193358999808,0.0,1.5015382766723633E7,-0.9765624737812494,296.00227695890027,248,13,0.0,15,402346525639082,10,34.1,618.8821411132812,0.029600001871585846,0,0.0,0.0,,,,,0,,1,,
Raw,25350684,25353235000000,,,-1200300193358999808,0.0,1.5015382766723633E7,-0.9765624737812494,296.00227695890027,248,19,0.0,15,402346515324707,61,19.3,-95.6701431274414,2.5190000534057617,0,0.0,0.0,,,,,0,,1,,
Raw,25350684,25353235000000,,,-1200300193358999808,0.0,1.5015382766723633E7,-0.9765624737812494,296.00227695890027,248,2,0.0,1,117306,1023,31.2,-139.67031860351562,21.455001831054688,0,0.0,0.0,,,,,0,,5,,
Raw,25350685,25353235000000,,,-1200300193358999808,0.0,1.5015382766723633E7,-0.9765624737812494,296.00227695890027,248,3,0.0,1,611168,5421,30.6,-243.87095642089844,49.47050094604492,0,0.0,0.0,,,,,0,,5,,
Raw,25350686,25353235000000,,,-1200300193358999808,0.0,1.5015382766723633E7,-0.9765624737812494,296.00227695890027,248,5,0.0,1,725353,4030,32.6,2.736562728881836,42.64350128173828,0,0.0,0.0,,,,,0,,5,,
Raw,25351662,25354235000000,,,-1200300193358999808,0.0,1.5015673637390137E7,-2.9296875207535953,294.2502969017007,248,6,0.0,15,402347514449179,7,37.3,363.57806396484375,0.041600000113248825,0,0.0,0.0,,,,,0,,1,,
Raw,25351662,25354235000000,,,-1200300193358999808,0.0,1.5015673637390137E7,-2.9296875207535953,294.2502969017007,248,10,0.0,15,402347518957352,7,37.5,-151.82052612304688,0.047600001096725464,0,0.0,0.0,,,,,0,,1,,
Raw,25351662,25354235000000,,,-1200300193358999808,0.0,1.5015673637390137E7,-2.9296875207535953,294.2502969017007,248,13,0.0,15,402347525637019,9,35.9,619.12890625,0.029100000858306885,0,0.0,0.0,,,,,0,,1,,
Raw,25351663,25354235000000,,,-1200300193358999808,0.0,1.5015673637390137E7,-2.9296875207535953,294.2502969017007,248,19,0.0,15,402347515324983,84,16.3,-96.4598617553711,2.0290000438690186,0,0.0,0.0,,,,,0,,1,,
Raw,25351663,25354235000000,,,-1200300193358999808,0.0,1.5015673637390137E7,-2.9296875207535953,294.2502969017007,248,2,0.0,1,117772,1170,31.2,-139.67031860351562,22.955001831054688,0,0.0,0.0,,,,,0,,5,,
Raw,25351663,25354235000000,,,-1200300193358999808,0.0,1.5015673637390137E7,-2.9296875207535953,294.2502969017007,248,3,0.0,1,611168,5421,30.6,-243.87095642089844,49.47050094604492,0,0.0,0.0,,,,,0,,5,,
Raw,25351663,25354235000000,,,-1200300193358999808,0.0,1.5015673637390137E7,-2.9296875207535953,294.2502969017007,248,5,0.0,1,725344,4319,32.6,2.736562728881836,44.14350128173828,0,0.0,0.0,,,,,0,,5,,
Raw,25352682,25355235000000,,,-1200300193358999808,0.0,1.5015962600708008E7,-0.9765624737812494,292.33564734250933,248,6,0.0,15,402348514447977,6,39.6,363.3938903808594,0.0406000018119812,0,0.0,0.0,,,,,0,,1,,
Raw,25352683,25355235000000,,,-1200300193358999808,0.0,1.5015962600708008E7,-0.9765624737812494,292.33564734250933,248,10,0.0,15,402348518957857,7,37.5,-151.98583984375,0.047600001096725464,0,0.0,0.0,,,,,0,,1,,
Raw,25352683,25355235000000,,,-1200300193358999808,0.0,1.5015962600708008E7,-0.9765624737812494,292.33564734250933,248,13,0.0,15,402348525634941,7,37.2,618.9443969726562,0.02810000069439411,0,0.0,0.0,,,,,0,,1,,
Raw,25352684,25355235000000,,,-1200300193358999808,0.0,1.5015962600708008E7,-0.9765624737812494,292.33564734250933,248,19,0.0,15,402348515325316,53,19.7,-95.96510314941406,0.9389999508857727,0,0.0,0.0,,,,,0,,1,,
Raw,25352684,25355235000000,,,-1200300193358999808,0.0,1.5015962600708008E7,-0.9765624737812494,292.33564734250933,248,2,0.0,1,118238,1327,31.2,-139.67031860351562,24.455001831054688,0,0.0,0.0,,,,,0,,5,,
Raw,25352685,25355235000000,,,-1200300193358999808,0.0,1.5015962600708008E7,-0.9765624737812494,292.33564734250933,248,3,0.0,1,611168,5421,30.6,-243.87095642089844,49.47050094604492,0,0.0,0.0,,,,,0,,5,,
Raw,25352686,25355235000000,,,-1200300193358999808,0.0,1.5015962600708008E7,-0.9765624737812494,292.33564734250933,248,5,0.0,1,725335,4617,32.6,2.736562728881836,45.64350128173828,0,0.0,0.0,,,,,0,,5,,
Raw,25353669,25356235000000,,,-1200300193358999808,0.0,1.5016258239746094E7,-0.9765624737812494,298.75539211291687,248,6,0.0,15,402349514446761,6,38.8,362.9468688964844,0.04110000282526016,0,0.0,0.0,,,,,0,,1,,
Raw,25353670,25356235000000,,,-1200300193358999808,0.0,1.5016258239746094E7,-0.9765624737812494,298.75539211291687,248,10,0.0,15,402349518958371,8,36.7,-152.48484802246094,0.04820000380277634,0,0.0,0.0,,,,,0,,1,,
Raw,25353671,25356235000000,,,-1200300193358999808,0.0,1.5016258239746094E7,-0.9765624737812494,298.75539211291687,248,13,0.0,15,402349525632859,9,35.6,618.40234375,0.029100000858306885,0,0.0,0.0,,,,,0,,1,,
Raw,25353671,25356235000000,,,-1200300193358999808,0.0,1.5016258239746094E7,-0.9765624737812494,298.75539211291687,248,19,0.0,15,402349515325808,61,18.1,-95.80335235595703,1.0989999771118164,0,0.0,0.0,,,,,0,,1,,
Raw,25354652,25357235000000,,,-1200300193358999808,0.0,1.5016551971435547E7,-3.9062498951249975,296.9846307521394,248,6,0.0,15,402350514445534,13,31.7,363.02752685546875,0.04620000347495079,0,0.0,0.0,,,,,0,,1,,
Raw,25354653,25357235000000,,,-1200300193358999808,0.0,1.5016551971435547E7,-3.9062498951249975,296.9846307521394,248,10,0.0,15,402350518958867,6,39.2,-152.47947692871094,0.04660000279545784,0,0.0,0.0,,,,,0,,1,,
Raw,25354653,25357235000000,,,-1200300193358999808,0.0,1.5016551971435547E7,-3.9062498951249975,296.9846307521394,248,13,0.0,15,402350525630799,6,38.9,618.4514770507812,0.0276000015437603,0,0.0,0.0,,,,,0,,1,,
Raw,25354654,25357235000000,,,-1200300193358999808,0.0,1.5016551971435547E7,-3.9062498951249975,296.9846307521394,248,19,0.0,15,402350515325983,24,25.0,-96.21522521972656,0.4043000042438507,0,0.0,0.0,,,,,0,,1,,
Raw,25354654,25357235000000,,,-1200300193358999808,0.0,1.5016551971435547E7,-3.9062498951249975,296.9846307521394,248,2,0.0,1,119170,1671,31.2,-139.67031860351562,27.455001831054688,0,0.0,0.0,,,,,0,,5,,
Raw,25354655,25357235000000,,,-1200300193358999808,0.0,1.5016551971435547E7,-3.9062498951249975,296.9846307521394,248,3,0.0,1,545977,18,33.5,-287.5311279296875,1.9135000705718994,0,0.0,0.0,,,,,0,,5,,
Raw,25355664,25358235000000,,,-1200300193358999808,0.0,1.5016843795776367E7,-2.9296875207535953,295.2514319985177,248,6,0.0,15,402351514444340,9,35.2,363.7315368652344,0.04260000213980675,0,0.0,0.0,,,,,0,,1,,
Raw,25355665,25358235000000,,,-1200300193358999808,0.0,1.5016843795776367E7,-2.9296875207535953,295.2514319985177,248,10,0.0,15,402351518959374,6,38.8,-151.73721313476562,0.0471000038087368,0,0.0,0.0,,,,,0,,1,,
Raw,25355666,25358235000000,,,-1200300193358999808,0.0,1.5016843795776367E7,-2.9296875207535953,295.2514319985177,248,13,0.0,15,402351525628753,6,38.7,619.140869140625,0.0276000015437603,0,0.0,0.0,,,,,0,,1,,
Raw,25355666,25358235000000,,,-1200300193358999808,0.0,1.5016843795776367E7,-2.9296875207535953,295.2514319985177,248,19,0.0,15,402351515326334,61,18.9,-95.90801239013672,1.0190000534057617,0,0.0,0.0,,,,,0,,1,,
Raw,25355667,25358235000000,,,-1200300193358999808,0.0,1.5016843795776367E7,-2.9296875207535953,295.2514319985177,248,2,0.0,1,119636,1859,31.2,-139.67031860351562,28.955001831054688,0,0.0,0.0,,,,,0,,5,,
Raw,25355668,25358235000000,,,-1200300193358999808,0.0,1.5016843795776367E7,-2.9296875207535953,295.2514319985177,248,3,0.0,1,546936,35,33.5,-287.5311279296875,3.4135000705718994,0,0.0,0.0,,,,,0,,5,,
Raw,25356666,25359235000000,,,-1200300193358999808,0.0,1.5017133712768555E7,-4.882812468316094,293.4994519413181,248,6,0.0,15,402352514443116,7,37.2,363.64544677734375,0.041600000113248825,0,0.0,0.0,,,,,0,,1,,
Raw,25356666,25359235000000,,,-1200300193358999808,0.0,1.5017133712768555E7,-4.882812468316094,293.4994519413181,248,10,0.0,15,402352518959890,5,40.2,-151.84410095214844,0.046400003135204315,0,0.0,0.0,,,,,0,,1,,
Raw,25356667,25359235000000,,,-1200300193358999808,0.0,1.5017133712768555E7,-4.882812468316094,293.4994519413181,248,13,0.0,15,402352525626675,6,39.7,619.0027465820312,0.02710000053048134,0,0.0,0.0,,,,,0,,1,,
Raw,25356668,25359235000000,,,-1200300193358999808,0.0,1.5017133712768555E7,-4.882812468316094,293.4994519413181,248,19,0.0,15,402352515326618,31,23.9,-95.47985076904297,0.6889999508857727,0,0.0,0.0,,,,,0,,1,,
Raw,25356668,25359235000000,,,-1200300193358999808,0.0,1.5017133712768555E7,-4.882812468316094,293.4994519413181,248,2,0.0,1,120101,2056,31.2,-139.67031860351562,30.455001831054688,0,0.0,0.0,,,,,0,,5,,
Raw,25356669,25359235000000,,,-1200300193358999808,0.0,1.5017133712768555E7,-4.882812468316094,293.4994519413181,248,3,0.0,1,547895,62,33.5,-287.5311279296875,4.9135003089904785,0,0.0,0.0,,,,,0,,5,,
Raw,25357661,25360235000000,,,-1200300193358999808,0.0,1.5017430305480957E7,-4.882812468316094,299.7502413262871,248,6,0.0,15,402353514441849,13,31.6,364.0251770019531,0.06120000407099724,0,0.0,0.0,,,,,0,,1,,
Raw,25357661,25360235000000,,,-1200300193358999808,0.0,1.5017430305480957E7,-4.882812468316094,299.7502413262871,248,10,0.0,15,402353518960385,5,40.1,-151.45826721191406,0.06140000373125076,0,0.0,0.0,,,,,0,,1,,
Raw,25357662,25360235000000,,,-1200300193358999808,0.0,1.5017430305480957E7,-4.882812468316094,299.7502413262871,248,13,0.0,15,402353525624615,6,38.7,619.4161987304688,0.0276000015437603,0,0.0,0.0,,,,,0,,1,,
Raw,25357662,25360235000000,,,-1200300193358999808,0.0,1.5017430305480957E7,-4.882812468316094,299.7502413262871,248,19,0.0,15,402353515326968,31,23.6,-95.31809997558594,0.7039999961853027,0,0.0,0.0,,,,,0,,1,,
Raw,25357662,25360235000000,,,-1200300193358999808,0.0,1.5017430305480957E7,-4.882812468316094,299.7502413262871,248,2,0.0,1,120567,2263,31.2,-139.67031860351562,31.955001831054688,0,0.0,0.0,,,,,0,,5,,
Raw,25357662,25360235000000,,,-1200300193358999808,0.0,1.5017430305480957E7,-4.882812468316094,299.7502413262871,248,3,0.0,1,548854,99,33.5,-287.5311279296875,6.4135003089904785,0,0.0,0.0,,,,,0,,5,,
Raw,25358667,25361235000000,,,-1200300193358999808,0.0,1.5017724990844727E7,0.0,298.0045471525343,248,6,0.0,15,402354514440661,31,23.7,364.5931701660156,0.6875,0,0.0,0.0,,,,,0,,1,,
Raw,25358667,25361235000000,,,-1200300193358999808,0.0,1.5017724990844727E7,0.0,298.0045471525343,248,10,0.0,15,402354518960878,7,37.0,-151.20359802246094,0.047600001096725464,0,0.0,0.0,,,,,0,,1,,
Raw,25358668,25361235000000,,,-1200300193358999808,0.0,1.5017724990844727E7,0.0,298.0045471525343,248,13,0.0,15,402354525622519,8,36.4,619.5838623046875,0.028700001537799835,0,0.0,0.0,,,,,0,,1,,
Raw,25358668,25361235000000,,,-1200300193358999808,0.0,1.5017724990844727E7,0.0,298.0045471525343,248,19,0.0,15,402354515327263,19,27.8,-95.13732147216797,0.5189999938011169,0,0.0,0.0,,,,,0,,1,,
Raw,25358669,25361235000000,,,-1200300193358999808,0.0,1.5017724990844727E7,0.0,298.0045471525343,248,2,0.0,1,121033,2480,31.2,-139.67031860351562,33.45500183105469,0,0.0,0.0,,,,,0,,5,,
Raw,25358669,25361235000000,,,-1200300193358999808,0.0,1.5017724990844727E7,0.0,298.0045471525343,248,3,0.0,1,549813,146,33.5,-287.5311279296875,7.9135003089904785,0,0.0,0.0,,,,,0,,5,,
Raw,25359665,25362235000000,,,-1200300193358999808,0.0,1.5018017768859863E7,-4.882812468316094,296.25256709533477,248,6,0.0,15,402355514439386,53,19.0,364.4028625488281,1.0175000429153442,0,0.0,0.0,,,,,0,,1,,
Raw,25359666,25362235000000,,,-1200300193358999808,0.0,1.5018017768859863E7,-4.882812468316094,296.25256709533477,248,10,0.0,15,402355518961393,7,37.1,-151.82318115234375,0.047600001096725464,0,0.0,0.0,,,,,0,,1,,
Raw,25359666,25362235000000,,,-1200300193358999808,0.0,1.5018017768859863E7,-4.882812468316094,296.25256709533477,248,13,0.0,15,402355525620451,7,37.6,618.9854736328125,0.02810000069439411,0,0.0,0.0,,,,,0,,1,,
Raw,25359667,25362235000000,,,-1200300193358999808,0.0,1.5018017768859863E7,-4.882812468316094,296.25256709533477,248,19,0.0,15,402355515327562,19,27.9,-95.75188446044922,0.06379999965429306,0,0.0,0.0,,,,,0,,1,,
Raw,25359667,25362235000000,,,-1200300193358999808,0.0,1.5018017768859863E7,-4.882812468316094,296.25256709533477,248,2,0.0,1,121499,2707,31.2,-139.67031860351562,34.95500183105469,0,0.0,0.0,,,,,0,,5,,
Raw,25359668,25362235000000,,,-1200300193358999808,0.0,1.5018017768859863E7,-4.882812468316094,296.25256709533477,248,3,0.0,1,550772,203,33.5,-287.5311279296875,9.413500785827637,0,0.0,0.0,,,,,0,,5,,
Raw,25360667,25363235000000,,,-1200300193358999808,0.0,1.5018308639526367E7,-3.9062498951249975,294.50058703813517,248,6,0.0,15,402356514438102,80,16.7,364.00323486328125,1.1875,0,0.0,0.0,,,,,0,,1,,
Raw,25360667,25363235000000,,,-1200300193358999808,0.0,1.5018308639526367E7,-3.9062498951249975,294.50058703813517,248,10,0.0,15,402356518961881,8,36.2,-151.2437286376953,0.04820000380277634,0,0.0,0.0,,,,,0,,1,,
Raw,25360668,25363235000000,,,-1200300193358999808,0.0,1.5018308639526367E7,-3.9062498951249975,294.50058703813517,248,13,0.0,15,402356525618391,8,36.8,619.5259399414062,0.028700001537799835,0,0.0,0.0,,,,,0,,1,,
Raw,25360668,25363235000000,,,-1200300193358999808,0.0,1.5018308639526367E7,-3.9062498951249975,294.50058703813517,248,19,0.0,15,402356515327915,19,27.3,-95.20511627197266,0.06379999965429306,0,0.0,0.0,,,,,0,,1,,
Raw,25360669,25363235000000,,,-1200300193358999808,0.0,1.5018308639526367E7,-3.9062498951249975,294.50058703813517,248,2,0.0,1,121965,2945,31.2,-139.67031860351562,36.45500183105469,0,0.0,0.0,,,,,0,,5,,
Raw,25360670,25363235000000,,,-1200300193358999808,0.0,1.5018308639526367E7,-3.9062498951249975,294.50058703813517,248,3,0.0,1,551732,270,33.5,-287.5311279296875,10.913500785827637,0,0.0,0.0,,,,,0,,5,,
Raw,25361676,25364235000000,,,-1200300193358999808,0.0,1.5018597602844238E7,-5.859375041507191,292.33564734250933,248,6,0.0,15,402357514436965,70,17.3,362.3857421875,1.1875,0,0.0,0.0,,,,,0,,1,,
Raw,25361676,25364235000000,,,-1200300193358999808,0.0,1.5018597602844238E7,-5.859375041507191,292.33564734250933,248,10,0.0,15,402357518962394,6,39.2,-151.40789794921875,0.04660000279545784,0,0.0,0.0,,,,,0,,1,,
Raw,25361677,25364235000000,,,-1200300193358999808,0.0,1.5018597602844238E7,-5.859375041507191,292.33564734250933,248,13,0.0,15,402357525616331,6,39.0,619.3392944335938,0.02710000053048134,0,0.0,0.0,,,,,0,,1,,
Raw,25361678,25364235000000,,,-1200300193358999808,0.0,1.5018597602844238E7,-5.859375041507191,292.33564734250933,248,19,0.0,15,402357515328211,17,28.5,-95.41294860839844,0.055800002068281174,0,0.0,0.0,,,,,0,,1,,
Raw,25361678,25364235000000,,,-1200300193358999808,0.0,1.5018597602844238E7,-5.859375041507191,292.33564734250933,248,2,0.0,1,122431,3192,31.2,-139.67031860351562,37.95500183105469,0,0.0,0.0,,,,,0,,5,,
Raw,25361679,25364235000000,,,-1200300193358999808,0.0,1.5018597602844238E7,-5.859375041507191,292.33564734250933,248,3,0.0,1,552691,347,33.5,-287.5311279296875,12.413500785827637,0,0.0,0.0,,,,,0,,5,,
Raw,25362657,25365235000000,,,-1200300193358999808,0.0,1.5018893241882324E7,-5.859375041507191,299.00568224935137,248,6,0.0,15,402358514435601,40,21.2,364.10791015625,0.8675000071525574,0,0.0,0.0,,,,,0,,1,,
Raw,25362658,25365235000000,,,-1200300193358999808,0.0,1.5018893241882324E7,-5.859375041507191,299.00568224935137,248,10,0.0,15,402358518962896,6,38.9,-151.86605834960938,0.0471000038087368,0,0.0,0.0,,,,,0,,1,,
Raw,25362659,25365235000000,,,-1200300193358999808,0.0,1.5018893241882324E7,-5.859375041507191,299.00568224935137,248,13,0.0,15,402358525614254,6,38.5,618.8617553710938,0.0276000015437603,0,0.0,0.0,,,,,0,,1,,
Raw,25362660,25365235000000,,,-1200300193358999808,0.0,1.5018893241882324E7,-5.859375041507191,299.00568224935137,248,19,0.0,15,402358515328561,17,28.9,-95.89103698730469,0.055800002068281174,0,0.0,0.0,,,,,0,,1,,
Raw,25363680,25366235000000,,,-1200300193358999808,0.0,1.5019186973571777E7,-4.882812468316094,297.25370219215176,248,6,0.0,15,402359514434492,61,18.1,363.8320007324219,1.097499966621399,0,0.0,0.0,,,,,0,,1,,
Raw,25363681,25366235000000,,,-1200300193358999808,0.0,1.5019186973571777E7,-4.882812468316094,297.25370219215176,248,10,0.0,15,402359518963397,6,38.0,-151.516845703125,0.0471000038087368,0,0.0,0.0,,,,,0,,1,,
Raw,25363681,25366235000000,,,-1200300193358999808,0.0,1.5019186973571777E7,-4.882812468316094,297.25370219215176,248,13,0.0,15,402359525612188,6,38.2,619.203125,0.0276000015437603,0,0.0,0.0,,,,,0,,1,,
Raw,25363682,25366235000000,,,-1200300193358999808,0.0,1.5019186973571777E7,-4.882812468316094,297.25370219215176,248,19,0.0,15,402359515328828,17,28.9,-95.57243347167969,0.055800002068281174,0,0.0,0.0,,,,,0,,1,,
Raw,25363682,25366235000000,,,-1200300193358999808,0.0,1.5019186973571777E7,-4.882812468316094,297.25370219215176,248,2,0.0,1,111715,17,33.3,-100.6094970703125,1.8250000476837158,0,0.0,0.0,,,,,0,,5,,
Raw,25363683,25366235000000,,,-1200300193358999808,0.0,1.5019186973571777E7,-4.882812468316094,297.25370219215176,248,3,0.0,1,554609,531,33.5,-287.5311279296875,15.413500785827637,0,0.0,0.0,,,,,0,,5,,
Raw,25364676,25367235000000,,,-1200300193358999808,0.0,1.5019478797912598E7,1.9531249475624988,295.50172213495216,248,6,0.0,15,402360514433243,27,24.6,365.5446472167969,0.6375000476837158,0,0.0,0.0,,,,,0,,1,,
Raw,25364677,25367235000000,,,-1200300193358999808,0.0,1.5019478797912598E7,1.9531249475624988,295.50172213495216,248,10,0.0,15,402360518963904,6,39.0,-150.38526916503906,0.04660000279545784,0,0.0,0.0,,,,,0,,1,,
Raw,25364678,25367235000000,,,-1200300193358999808,0.0,1.5019478797912598E7,1.9531249475624988,295.50172213495216,248,13,0.0,15,402360525610133,6,38.8,620.331787109375,0.0276000015437603,0,0.0,0.0,,,,,0,,1,,
Raw,25364678,25367235000000,,,-1200300193358999808,0.0,1.5019478797912598E7,1.9531249475624988,295.50172213495216,248,19,0.0,15,402360515329162,16,29.1,-94.47695922851562,0.04920000210404396,0,0.0,0.0,,,,,0,,1,,
Raw,25364679,25367235000000,,,-1200300193358999808,0.0,1.5019478797912598E7,1.9531249475624988,295.50172213495216,248,2,0.0,1,112050,34,33.3,-100.6094970703125,3.325000047683716,0,0.0,0.0,,,,,0,,5,,
Raw,25364679,25367235000000,,,-1200300193358999808,0.0,1.5019478797912598E7,1.9531249475624988,295.50172213495216,248,3,0.0,1,555568,638,33.5,-287.5311279296875,16.913501739501953,0,0.0,0.0,,,,,0,,5,,
Raw,25365665,25368235000000,,,-1200300193358999808,0.0,1.5019769668579102E7,-0.9765624737812494,293.7497420777526,248,6,0.0,15,402361514432100,24,25.5,365.2645263671875,0.4027999937534332,0,0.0,0.0,,,,,0,,1,,
Raw,25365667,25368235000000,,,-1200300193358999808,0.0,1.5019769668579102E7,-0.9765624737812494,293.7497420777526,248,10,0.0,15,402361518964412,5,41.5,-150.4509735107422,0.04610000178217888,0,0.0,0.0,,,,,0,,1,,
Raw,25365668,25368235000000,,,-1200300193358999808,0.0,1.5019769668579102E7,-0.9765624737812494,293.7497420777526,248,13,0.0,15,402361525608080,6,39.5,620.2078247070312,0.02710000053048134,0,0.0,0.0,,,,,0,,1,,
Raw,25365669,25368235000000,,,-1200300193358999808,0.0,1.5019769668579102E7,-0.9765624737812494,293.7497420777526,248,19,0.0,15,402361515329489,19,27.9,-94.54012298583984,0.06379999965429306,0,0.0,0.0,,,,,0,,1,,
Raw,25365669,25368235000000,,,-1200300193358999808,0.0,1.5019769668579102E7,-0.9765624737812494,293.7497420777526,248,2,0.0,1,112386,60,33.3,-100.6094970703125,4.825000286102295,0,0.0,0.0,,,,,0,,5,,
Raw,25365670,25368235000000,,,-1200300193358999808,0.0,1.5019769668579102E7,-0.9765624737812494,293.7497420777526,248,3,0.0,1,556527,755,33.5,-287.5311279296875,18.413501739501953,0,0.0,0.0,,,,,0,,5,,
Raw,25366672,25369235000000,,,-1200300193358999808,0.0,1.5020066261291504E7,-0.9765624737812494,300.0005314627216,248,6,0.0,15,402362514430806,24,25.5,365.62493896484375,0.4027999937534332,0,0.0,0.0,,,,,0,,1,,
Raw,25366672,25369235000000,,,-1200300193358999808,0.0,1.5020066261291504E7,-0.9765624737812494,300.0005314627216,248,10,0.0,15,402362518964917,5,41.4,-150.04678344726562,0.04610000178217888,0,0.0,0.0,,,,,0,,1,,
Raw,25366673,25369235000000,,,-1200300193358999808,0.0,1.5020066261291504E7,-0.9765624737812494,300.0005314627216,248,13,0.0,15,402362525606003,6,39.4,620.6245727539062,0.02710000053048134,0,0.0,0.0,,,,,0,,1,,
Raw,25366674,25369235000000,,,-1200300193358999808,0.0,1.5020066261291504E7,-0.9765624737812494,300.0005314627216,248,19,0.0,15,402362515329752,27,24.3,-94.14779663085938,0.6889999508857727,0,0.0,0.0,,,,,0,,1,,
Raw,25366675,25369235000000,,,-1200300193358999808,0.0,1.5020066261291504E7,-0.9765624737812494,300.0005314627216,248,2,0.0,1,112722,96,33.3,-100.6094970703125,6.325000286102295,0,0.0,0.0,,,,,0,,5,,
Raw,25366676,25369235000000,,,-1200300193358999808,0.0,1.5020066261291504E7,-0.9765624737812494,300.0005314627216,248,3,0.0,1,557486,882,33.5,-287.5311279296875,19.913501739501953,0,0.0,0.0,,,,,0,,5,,
