# 
# Header Description:
# 
# Version: v2.0.0.1 Platform: 8.0.0 Manufacturer: Xiaomi Model: MIX 2
# 
# Raw,ElapsedRealtimeMillis,TimeNanos,LeapSecond,TimeUncertaintyNanos,FullBiasNanos,BiasNanos,BiasUncertaintyNanos,DriftNanosPerSecond,DriftUncertaintyNanosPerSecond,HardwareClockDiscontinuityCount,Svid,TimeOffsetNanos,State,ReceivedSvTimeNanos,ReceivedSvTimeUncertaintyNanos,Cn0DbHz,PseudorangeRateMetersPerSecond,PseudorangeRateUncertaintyMetersPerSecond,AccumulatedDeltaRangeState,AccumulatedDeltaRangeMeters,AccumulatedDeltaRangeUncertaintyMeters,CarrierFrequencyHz,CarrierCycles,CarrierPhase,CarrierPhaseUncertainty,MultipathIndicator,SnrInDb,ConstellationType,AgcDb,CarrierFrequencyHz
# 
# Fix,Provider,Latitude,Longitude,Altitude,Speed,Accuracy,(UTC)TimeInMs
# 
# Nav,Svid,Type,Status,MessageId,Sub-messageId,Data(Bytes)
# 
Fix,gps,40.000183,118.000180,240.098389,0.000000,43.952000,1516290294000
Raw,1036083,1038278000000,,,-1200324473169590784,0.0,467.503909021616,998.4904449636164,58.45714458441137,12,6,0.0,15,402311365776512,5,47.0,361.2904052734375,0.025300001725554466,0,0.0,0.0,,,,,0,,1,,
Raw,1036084,1038278000000,,,-1200324473169590784,0.0,467.503909021616,998.4904449636164,58.45714458441137,12,10,0.0,15,402311370222486,6,38.7,-153.3367156982422,0.035100001841783524,0,0.0,0.0,,,,,0,,1,,
Raw,1036084,1038278000000,,,-1200324473169590784,0.0,467.503909021616,998.4904449636164,58.45714458441137,12,13,0.0,15,402311376995322,12,32.5,618.3261108398438,0.0479000024497509,0,0.0,0.0,,,,,0,,1,,
Raw,1036085,1038278000000,,,-1200324473169590784,0.0,467.503909021616,998.4904449636164,58.45714458441137,12,19,0.0,15,402311366597003,5,40.5,-95.9427490234375,0.028400002047419548,0,0.0,0.0,,,,,0,,1,,
NMEA,$GPGSV,1,1,04,06,11,050,47,10,25,312,39,13,53,102,33,19,13,097,41*77
,1525852043390
NMEA,$GLGSV,1,1,0,*79
,1525852043393
NMEA,$GAGSV,1,1,0,*74
,1525852043394
NMEA,$GPGSA,A,3,06,10,13,19,,,,,,,,,2.2,2.0,0.9,1*29
,1525852043406
NMEA,$GPVTG,,T,,M,0.0,N,0.0,K,A*23
,1525852043408
NMEA,$GPRMC,154454.00,A,4000.010959,N,11800.010823,E,0.0,,180118,6.3,W,A*08
,1525852043408
NMEA,$GPGGA,154454.00,4000.010959,N,11800.010823,E,1,04,2.0,243.3,M,-3.2,M,,*75
,1525852043408
NMEA,$GPGSV,1,1,04,06,11,050,47,10,25,312,39,13,53,102,34,19,14,097,41*77
,1525852044390
NMEA,$GLGSV,1,1,0,*79
,1525852044394
NMEA,$GAGSV,1,1,0,*74
,1525852044397
Raw,1037083,1039278000000,,,-1200324473169589760,0.0,411.44745773635805,998.7844308971285,61.43049469935364,12,6,0.0,15,402312365775306,5,47.3,360.8835754394531,0.025300001725554466,0,0.0,0.0,,,,,0,,1,,
Raw,1037083,1039278000000,,,-1200324473169589760,0.0,411.44745773635805,998.7844308971285,61.43049469935364,12,10,0.0,15,402312370222990,6,39.3,-153.7715301513672,0.03460000082850456,0,0.0,0.0,,,,,0,,1,,
Raw,1037084,1039278000000,,,-1200324473169589760,0.0,411.44745773635805,998.7844308971285,61.43049469935364,12,13,0.0,15,402312376993267,10,34.0,617.8751220703125,0.04610000178217888,0,0.0,0.0,,,,,0,,1,,
Raw,1037085,1039278000000,,,-1200324473169589760,0.0,411.44745773635805,998.7844308971285,61.43049469935364,12,19,0.0,15,402312366597328,5,40.6,-96.40424346923828,0.028400002047419548,0,0.0,0.0,,,,,0,,1,,
Fix,gps,40.000176,118.000177,236.335327,0.000000,38.592003,1516290295000
NMEA,$GPGSA,A,3,06,10,13,19,,,,,,,,,2.2,2.0,0.9,1*29
,1525852044408
NMEA,$GPVTG,,T,,M,0.0,N,0.0,K,A*23
,1525852044408
NMEA,$GPRMC,154455.00,A,4000.010535,N,11800.010603,E,0.0,,180118,6.3,W,A*03
,1525852044409
NMEA,$GPGGA,154455.00,4000.010535,N,11800.010603,E,1,04,2.0,239.5,M,-3.2,M,,*75
,1525852044409
NMEA,$GPGSV,1,1,04,06,11,050,47,10,25,312,39,13,53,102,36,19,14,097,40*74
,1525852045393
NMEA,$GLGSV,1,1,0,*79
,1525852045395
NMEA,$GAGSV,1,1,0,*74
,1525852045396
Raw,1038092,1040278000000,,,-1200324473169588736,0.0,377.5488294195384,997.5455774307705,62.25573957980393,12,6,0.0,15,402313365774105,5,46.7,360.56298828125,0.02550000138580799,0,0.0,0.0,,,,,0,,1,,
Raw,1038093,1040278000000,,,-1200324473169588736,0.0,377.5488294195384,997.5455774307705,62.25573957980393,12,10,0.0,15,402313370223511,6,38.7,-154.1237030029297,0.035100001841783524,0,0.0,0.0,,,,,0,,1,,
Raw,1038094,1040278000000,,,-1200324473169588736,0.0,377.5488294195384,997.5455774307705,62.25573957980393,12,13,0.0,15,402313376991165,8,36.0,617.526611328125,0.04520000144839287,0,0.0,0.0,,,,,0,,1,,
Raw,1038095,1040278000000,,,-1200324473169588736,0.0,377.5488294195384,997.5455774307705,62.25573957980393,12,19,0.0,15,402313366597650,6,39.7,-96.77677917480469,0.028600001707673073,0,0.0,0.0,,,,,0,,1,,
Fix,gps,40.000173,118.000172,234.155090,0.000000,36.448002,1516290296000
NMEA,$GPGSA,A,3,06,10,13,19,,,,,,,,,2.2,2.0,0.9,1*29
,1525852045410
NMEA,$GPVTG,,T,,M,0.0,N,0.0,K,A*23
,1525852045412
NMEA,$GPRMC,154456.00,A,4000.010373,N,11800.010326,E,0.0,,180118,6.3,W,A*06
,1525852045414
NMEA,$GPGGA,154456.00,4000.010373,N,11800.010326,E,1,04,2.0,237.4,M,-3.2,M,,*7F
,1525852045416
Fix,gps,40.000179,118.000173,232.781128,0.000000,34.304001,1516290297000
NMEA,$GPGSV,1,1,04,06,11,050,46,10,25,312,37,13,53,102,35,19,14,097,38*77
,1525852046392
NMEA,$GLGSV,1,1,0,*79
,1525852046394
NMEA,$GAGSV,1,1,0,*74
,1525852046395
NMEA,$GPGSA,A,3,06,10,13,19,,,,,,,,,2.2,2.0,0.9,1*29
,1525852046402
NMEA,$GPVTG,,T,,M,0.0,N,0.0,K,A*23
,1525852046404
NMEA,$GPRMC,154457.00,A,4000.010757,N,11800.010369,E,0.0,,180118,6.3,W,A*0E
,1525852046405
Raw,1039090,1041278000000,,,-1200324473169587712,0.0,356.97795101441443,996.1226773689176,62.444895046157086,12,6,0.0,15,402314365772905,4,45.5,362.1787414550781,0.025600001215934753,0,0.0,0.0,,,,,0,,1,,
Raw,1039090,1041278000000,,,-1200324473169587712,0.0,356.97795101441443,996.1226773689176,62.444895046157086,12,10,0.0,15,402314370224019,7,37.2,-152.532470703125,0.035600002855062485,0,0.0,0.0,,,,,0,,1,,
Raw,1039091,1041278000000,,,-1200324473169587712,0.0,356.97795101441443,996.1226773689176,62.444895046157086,12,13,0.0,15,402314376989111,10,34.8,619.0970458984375,0.04610000178217888,0,0.0,0.0,,,,,0,,1,,
Raw,1039091,1041278000000,,,-1200324473169587712,0.0,356.97795101441443,996.1226773689176,62.444895046157086,12,19,0.0,15,402314366597963,6,38.2,-95.21244812011719,0.029100000858306885,0,0.0,0.0,,,,,0,,1,,
NMEA,$GPGGA,154457.00,4000.010757,N,11800.010369,E,1,04,2.0,236.0,M,-3.2,M,,*72
,1525852046422
Fix,gps,40.000179,118.000175,231.510254,0.000000,33.232002,1516290298000
Raw,1040081,1042278000000,,,-1200324473169586688,0.0,342.91049814783037,1000.2203608064501,62.4447678015529,12,6,0.0,15,402315365771695,5,46.7,361.69219970703125,0.02550000138580799,0,0.0,0.0,,,,,0,,1,,
Raw,1040082,1042278000000,,,-1200324473169586688,0.0,342.91049814783037,1000.2203608064501,62.4447678015529,12,10,0.0,15,402315370224519,7,37.6,-153.02572631835938,0.035600002855062485,0,0.0,0.0,,,,,0,,1,,
Raw,1040082,1042278000000,,,-1200324473169586688,0.0,342.91049814783037,1000.2203608064501,62.4447678015529,12,13,0.0,15,402315376986998,12,32.7,618.5966186523438,0.0479000024497509,0,0.0,0.0,,,,,0,,1,,
Raw,1040082,1042278000000,,,-1200324473169586688,0.0,342.91049814783037,1000.2203608064501,62.4447678015529,12,19,0.0,15,402315366598288,6,38.2,-95.75540924072266,0.029100000858306885,0,0.0,0.0,,,,,0,,1,,
NMEA,$GPGSV,1,1,04,06,11,050,47,10,25,312,38,13,53,102,33,19,14,097,38*7F
,1525852047388
NMEA,$GLGSV,1,1,0,*79
,1525852047390
NMEA,$GAGSV,1,1,0,*74
,1525852047392
NMEA,$GPGSA,A,3,06,10,13,19,,,,,,,,,2.2,2.0,0.9,1*29
,1525852047401
NMEA,$GPVTG,,T,,M,0.0,N,0.0,K,A*23
,1525852047404
NMEA,$GPRMC,154458.00,A,4000.010736,N,11800.010496,E,0.0,,180118,6.3,W,A*01
,1525852047406
NMEA,$GPGGA,154458.00,4000.010736,N,11800.010496,E,1,04,2.0,234.7,M,-3.2,M,,*78
,1525852047408
NMEA,$GPGSV,1,1,04,06,11,050,49,10,25,312,38,13,53,102,37,19,14,097,41*7B
,1525852048392
NMEA,$GLGSV,1,1,0,*79
,1525852048393
NMEA,$GAGSV,1,1,0,*74
,1525852048401
Raw,1041081,1043278000000,,,-1200324473169585664,0.0,333.5583314765245,999.2046434779933,62.41445813683572,12,6,0.0,15,402316365770482,4,49.4,361.4271240234375,0.025300001725554466,0,0.0,0.0,,,,,0,,1,,
Raw,1041082,1043278000000,,,-1200324473169585664,0.0,333.5583314765245,999.2046434779933,62.41445813683572,12,10,0.0,15,402316370225045,7,37.6,-153.27207946777344,0.035600002855062485,0,0.0,0.0,,,,,0,,1,,
Raw,1041083,1043278000000,,,-1200324473169585664,0.0,333.5583314765245,999.2046434779933,62.41445813683572,12,13,0.0,15,402316376984881,8,36.7,618.238037109375,0.04520000144839287,0,0.0,0.0,,,,,0,,1,,
Raw,1041083,1043278000000,,,-1200324473169585664,0.0,333.5583314765245,999.2046434779933,62.41445813683572,12,19,0.0,15,402316366598604,5,41.0,-96.04114532470703,0.02810000069439411,0,0.0,0.0,,,,,0,,1,,
Fix,gps,40.000176,118.000170,230.463501,0.000000,32.160000,1516290299000
NMEA,$GPGSA,A,3,06,10,13,19,,,,,,,,,2.2,2.0,0.9,1*29
,1525852048407
NMEA,$GPVTG,,T,,M,0.0,N,0.0,K,A*23
,1525852048408
NMEA,$GPRMC,154459.00,A,4000.010577,N,11800.010195,E,0.0,,180118,6.3,W,A*01
,1525852048408
NMEA,$GPGGA,154459.00,4000.010577,N,11800.010195,E,1,04,2.0,233.7,M,-3.2,M,,*7F
,1525852048408
Fix,gps,40.000177,118.000169,229.908569,0.000000,32.160000,1516290300000
Raw,1042076,1044278000000,,,-1200324473169584640,0.0,327.24058837629855,997.8386472031325,62.38297145952982,12,6,0.0,15,402317365769274,4,49.6,361.36444091796875,0.025300001725554466,0,0.0,0.0,,,,,0,,1,,
Raw,1042077,1044278000000,,,-1200324473169584640,0.0,327.24058837629855,997.8386472031325,62.38297145952982,12,10,0.0,15,402317370225545,6,39.5,-153.4252166748047,0.03460000082850456,0,0.0,0.0,,,,,0,,1,,
Raw,1042078,1044278000000,,,-1200324473169584640,0.0,327.24058837629855,997.8386472031325,62.38297145952982,12,13,0.0,15,402317376982780,6,39.7,618.19189453125,0.04360000044107437,0,0.0,0.0,,,,,0,,1,,
Raw,1042080,1044278000000,,,-1200324473169584640,0.0,327.24058837629855,997.8386472031325,62.38297145952982,12,19,0.0,15,402317366598916,5,41.5,-96.19027709960938,0.02810000069439411,0,0.0,0.0,,,,,0,,1,,
NMEA,$GPGSV,1,1,04,06,11,050,50,10,25,312,40,13,53,102,40,19,14,097,42*7F
,1525852049390
NMEA,$GLGSV,1,1,0,*79
,1525852049392
NMEA,$GAGSV,1,1,0,*74
,1525852049399
NMEA,$GPGSA,A,3,06,10,13,19,,,,,,,,,2.2,2.0,0.9,1*29
,1525852049407
NMEA,$GPVTG,,T,,M,0.0,N,0.0,K,A*23
,1525852049408
NMEA,$GPRMC,154500.00,A,4000.010645,N,11800.010138,E,0.0,,180118,6.3,W,A*09
,1525852049409
NMEA,$GPGGA,154500.00,4000.010645,N,11800.010138,E,1,04,2.0,233.1,M,-3.2,M,,*71
,1525852049409
NMEA,$GPGSV,1,1,04,06,11,050,47,10,25,312,40,13,53,102,31,19,14,097,39*73
,1525852050390
NMEA,$GLGSV,1,1,0,*79
,1525852050394
Fix,gps,40.000175,118.000166,228.433350,0.000000,31.088001,1516290301000
Raw,1043083,1045278000000,,,-1200324473169583616,0.0,322.96610879711807,997.2650285274606,62.35933577430221,12,6,0.0,15,402318365768066,5,47.2,362.2040100097656,0.025300001725554466,0,0.0,0.0,,,,,0,,1,,
Raw,1043084,1045278000000,,,-1200324473169583616,0.0,322.96610879711807,997.2650285274606,62.35933577430221,12,10,0.0,15,402318370226053,6,39.9,-152.5681610107422,0.03460000082850456,0,0.0,0.0,,,,,0,,1,,
Raw,1043085,1045278000000,,,-1200324473169583616,0.0,322.96610879711807,997.2650285274606,62.35933577430221,12,13,0.0,15,402318376980825,13,31.0,619.0162963867188,0.04920000210404396,0,0.0,0.0,,,,,0,,1,,
Raw,1043085,1045278000000,,,-1200324473169583616,0.0,322.96610879711807,997.2650285274606,62.35933577430221,12,19,0.0,15,402318366599240,6,39.3,-95.37904357910156,0.028600001707673073,0,0.0,0.0,,,,,0,,1,,
NMEA,$GAGSV,1,1,0,*74
,1525852050395
NMEA,$GPGSA,A,3,06,10,13,19,,,,,,,,,2.2,2.0,0.9,1*29
,1525852050403
NMEA,$GPVTG,,T,,M,0.0,N,0.0,K,A*23
,1525852050407
NMEA,$GPRMC,154501.00,A,4000.010526,N,11800.009989,E,0.0,,180118,6.3,W,A*04
,1525852050407
NMEA,$GPGGA,154501.00,4000.010526,N,11800.009989,E,1,04,2.0,231.6,M,-3.2,M,,*79
,1525852050408
NMEA,$GPGSV,1,1,04,06,11,050,48,10,25,312,40,13,53,102,32,19,14,097,40*71
,1525852051393
Raw,1044081,1046278000000,,,-1200324473169582592,0.0,319.55071608535945,999.1653503442205,62.33974010525752,12,6,0.0,15,402319365766862,5,47.9,362.4385986328125,0.025300001725554466,0,0.0,0.0,,,,,0,,1,,
Raw,1044082,1046278000000,,,-1200324473169582592,0.0,319.55071608535945,999.1653503442205,62.33974010525752,12,10,0.0,15,402319370226574,6,39.9,-152.35801696777344,0.03460000082850456,0,0.0,0.0,,,,,0,,1,,
Raw,1044083,1046278000000,,,-1200324473169582592,0.0,319.55071608535945,999.1653503442205,62.33974010525752,12,13,0.0,15,402319376978877,12,32.1,619.1639404296875,0.0479000024497509,0,0.0,0.0,,,,,0,,1,,
Raw,1044083,1046278000000,,,-1200324473169582592,0.0,319.55071608535945,999.1653503442205,62.33974010525752,12,19,0.0,15,402319366599567,6,39.6,-95.20861053466797,0.028600001707673073,0,0.0,0.0,,,,,0,,1,,
Fix,gps,40.000176,118.000170,230.658264,0.000000,31.088001,1516290302000
NMEA,$GLGSV,1,1,0,*79
,1525852051394
NMEA,$GAGSV,1,1,0,*74
,1525852051403
NMEA,$GPGSA,A,3,06,10,13,19,,,,,,,,,2.2,2.0,0.9,1*29
,1525852051408
NMEA,$GPVTG,,T,,M,0.0,N,0.0,K,A*23
,1525852051408
NMEA,$GPRMC,154502.00,A,4000.010576,N,11800.010200,E,0.0,,180118,6.3,W,A*00
,1525852051409
NMEA,$GPGGA,154502.00,4000.010576,N,11800.010200,E,1,04,2.0,233.9,M,-3.2,M,,*70
,1525852051410
Fix,gps,40.000176,118.000171,230.896362,0.000000,31.088001,1516290303000
Raw,1045054,1047278000000,,,-1200324473169582080,0.0,312.3574424535036,999.308373279326,62.30143311716723,12,6,0.0,15,402320365765653,4,49.1,362.1187744140625,0.025300001725554466,0,0.0,0.0,,,,,0,,1,,
Raw,1045055,1047278000000,,,-1200324473169582080,0.0,312.3574424535036,999.308373279326,62.30143311716723,12,10,0.0,15,402320370227073,6,39.4,-152.6988525390625,0.03460000082850456,0,0.0,0.0,,,,,0,,1,,
Raw,1045055,1047278000000,,,-1200324473169582080,0.0,312.3574424535036,999.308373279326,62.30143311716723,12,13,0.0,15,402320376976799,13,31.2,618.8271484375,0.04920000210404396,0,0.0,0.0,,,,,0,,1,,
Raw,1045056,1047278000000,,,-1200324473169582080,0.0,312.3574424535036,999.308373279326,62.30143311716723,12,19,0.0,15,402320366599885,6,39.5,-95.56836700439453,0.028600001707673073,0,0.0,0.0,,,,,0,,1,,
NMEA,$GPGSV,1,1,04,06,11,050,49,10,25,312,39,13,53,102,31,19,14,097,40*7D
,1525852052383
NMEA,$GLGSV,1,1,0,*79
,1525852052384
NMEA,$GAGSV,1,1,0,*74
,1525852052385
NMEA,$GPGSA,A,3,06,10,13,19,,,,,,,,,2.2,2.0,0.9,1*29
,1525852052386
NMEA,$GPVTG,,T,,M,0.0,N,0.0,K,A*23
,1525852052386
NMEA,$GPRMC,154503.00,A,4000.010560,N,11800.010234,E,0.0,,180118,6.3,W,A*01
,1525852052387
NMEA,$GPGGA,154503.00,4000.010560,N,11800.010234,E,1,04,2.0,234.1,M,-3.2,M,,*7E
,1525852052387
Raw,1046068,1048278000000,,,-1200324473169581056,0.0,305.6414134334773,998.4147089752047,62.29897729630643,12,6,0.0,15,402321365764445,5,48.8,362.5647277832031,0.025300001725554466,0,0.0,0.0,,,,,0,,1,,
Raw,1046068,1048278000000,,,-1200324473169581056,0.0,305.6414134334773,998.4147089752047,62.29897729630643,12,10,0.0,15,402321370227586,6,39.6,-152.27932739257812,0.03460000082850456,0,0.0,0.0,,,,,0,,1,,
Raw,1046069,1048278000000,,,-1200324473169581056,0.0,305.6414134334773,998.4147089752047,62.29897729630643,12,13,0.0,15,402321376974669,12,32.6,619.3202514648438,0.3605000078678131,0,0.0,0.0,,,,,0,,1,,
Raw,1046069,1048278000000,,,-1200324473169581056,0.0,305.6414134334773,998.4147089752047,62.29897729630643,12,19,0.0,15,402321366600199,6,39.8,-95.18755340576172,0.028600001707673073,0,0.0,0.0,,,,,0,,1,,
Fix,gps,40.000175,118.000169,230.089050,0.000000,31.088001,1516290304000
NMEA,$GPGSV,1,1,04,06,11,050,49,10,25,312,40,13,53,102,33,19,14,097,40*71
,1525852053387
NMEA,$GLGSV,1,1,0,*79
,1525852053389
NMEA,$GAGSV,1,1,0,*74
,1525852053390
NMEA,$GPGSA,A,3,06,10,13,19,,,,,,,,,2.2,2.0,0.9,1*29
,1525852053394
NMEA,$GPVTG,,T,,M,0.0,N,0.0,K,A*23
,1525852053395
NMEA,$GPRMC,154504.00,A,4000.010519,N,11800.010145,E,0.0,,180118,6.3,W,A*0D
,1525852053396
NMEA,$GPGGA,154504.00,4000.010519,N,11800.010145,E,1,04,2.0,233.3,M,-3.2,M,,*77
,1525852053397
Raw,1047064,1049278000000,,,-1200324473169580032,0.0,304.41145645454526,999.2924931527235,66.20501763547391,12,6,0.0,15,402322365763233,5,48.4,361.2437438964844,0.025300001725554466,0,0.0,0.0,,,,,0,,1,,
Raw,1047064,1049278000000,,,-1200324473169580032,0.0,304.41145645454526,999.2924931527235,66.20501763547391,12,10,0.0,15,402322370228070,6,38.0,-153.61439514160156,0.035100001841783524,0,0.0,0.0,,,,,0,,1,,
Raw,1047064,1049278000000,,,-1200324473169580032,0.0,304.41145645454526,999.2924931527235,66.20501763547391,12,13,0.0,15,402322376972591,10,34.7,617.8698120117188,0.04610000178217888,0,0.0,0.0,,,,,0,,1,,
Raw,1047065,1049278000000,,,-1200324473169580032,0.0,304.41145645454526,999.2924931527235,66.20501763547391,12,19,0.0,15,402322366600517,6,38.5,-96.54100799560547,0.029100000858306885,0,0.0,0.0,,,,,0,,1,,
Fix,gps,40.000175,118.000168,229.544006,0.000000,31.088001,1516290305000
NMEA,$GPGSV,1,1,04,06,11,050,48,10,25,312,38,13,53,102,35,19,14,097,39*77
,1525852054388
NMEA,$GLGSV,1,1,0,*79
,1525852054389
NMEA,$GAGSV,1,1,0,*74
,1525852054390
NMEA,$GPGSA,A,3,06,10,13,19,,,,,,,,,2.2,2.0,0.9,1*29
,1525852054398
NMEA,$GPVTG,,T,,M,0.0,N,0.0,K,A*23
,1525852054399
NMEA,$GPRMC,154505.00,A,4000.010490,N,11800.010096,E,0.0,,180118,6.3,W,A*03
,1525852054400
NMEA,$GPGGA,154505.00,4000.010490,N,11800.010096,E,1,04,2.0,232.7,M,-3.2,M,,*7C
,1525852054401
NMEA,$GPGSV,1,1,04,06,11,050,48,10,25,312,38,13,53,102,35,19,14,097,39*77
,1525852055393
NMEA,$GLGSV,1,1,0,*79
,1525852055395
Raw,1048077,1050278000000,,,-1200324473169579008,0.0,298.35576424375176,995.8218711246212,62.59749949995772,12,6,0.0,15,402323365762029,5,47.9,361.2984619140625,0.025300001725554466,0,0.0,0.0,,,,,0,,1,,
Raw,1048078,1050278000000,,,-1200324473169579008,0.0,298.35576424375176,995.8218711246212,62.59749949995772,12,10,0.0,15,402323370228595,7,37.5,-153.5880889892578,0.035600002855062485,0,0.0,0.0,,,,,0,,1,,
Raw,1048079,1050278000000,,,-1200324473169579008,0.0,298.35576424375176,995.8218711246212,62.59749949995772,12,13,0.0,15,402323376970527,9,35.2,617.8449096679688,0.04560000076889992,0,0.0,0.0,,,,,0,,1,,
Raw,1048080,1050278000000,,,-1200324473169579008,0.0,298.35576424375176,995.8218711246212,62.59749949995772,12,19,0.0,15,402323366600832,6,38.6,-96.54490661621094,0.029100000858306885,0,0.0,0.0,,,,,0,,1,,
NMEA,$GAGSV,1,1,0,*74
,1525852055396
NMEA,$GPGSA,A,3,06,10,13,19,,,,,,,,,2.2,2.0,0.9,1*29
,1525852055405
NMEA,$GPVTG,,T,,M,0.0,N,0.0,K,A*23
,1525852055407
NMEA,$GPRMC,154506.00,A,4000.010479,N,11800.010069,E,0.0,,180118,6.3,W,A*07
,1525852055409
NMEA,$GPGGA,154506.00,4000.010479,N,11800.010069,E,1,04,2.0,232.5,M,-3.2,M,,*7A
,1525852055410
Fix,gps,40.000175,118.000168,229.280640,0.000000,31.088001,1516290306000
Raw,1049070,1051278000000,,,-1200324473169577984,0.0,293.97010803222656,995.0915888922751,62.36920995558707,12,6,0.0,15,402324365760826,5,47.5,361.82208251953125,0.025300001725554466,0,0.0,0.0,,,,,0,,1,,
Raw,1049071,1051278000000,,,-1200324473169577984,0.0,293.97010803222656,995.0915888922751,62.36920995558707,12,10,0.0,15,402324370229109,7,37.8,-153.09005737304688,0.035600002855062485,0,0.0,0.0,,,,,0,,1,,
Raw,1049071,1051278000000,,,-1200324473169577984,0.0,293.97010803222656,995.0915888922751,62.36920995558707,12,13,0.0,15,402324376968484,9,35.0,618.3388671875,0.04560000076889992,0,0.0,0.0,,,,,0,,1,,
Raw,1049072,1051278000000,,,-1200324473169577984,0.0,293.97010803222656,995.0915888922751,62.36920995558707,12,19,0.0,15,402324366601147,7,37.4,-96.08504486083984,0.029600001871585846,0,0.0,0.0,,,,,0,,1,,
Fix,gps,40.000175,118.000168,229.178223,0.000000,31.088001,1516290307000
NMEA,$GPGSV,1,1,04,06,11,050,48,10,25,312,38,13,53,102,35,19,14,097,37*79
,1525852056388
NMEA,$GLGSV,1,1,0,*79
,1525852056390
NMEA,$GAGSV,1,1,0,*74
,1525852056391
NMEA,$GPGSA,A,3,06,10,13,19,,,,,,,,,2.2,2.0,0.9,1*29
,1525852056395
NMEA,$GPVTG,,T,,M,0.0,N,0.0,K,A*23
,1525852056396
NMEA,$GPRMC,154507.00,A,4000.010477,N,11800.010058,E,0.0,,180118,6.3,W,A*0A
,1525852056397
NMEA,$GPGGA,154507.00,4000.010477,N,11800.010058,E,1,04,2.0,232.4,M,-3.2,M,,*76
,1525852056398
Raw,1050089,1052278000000,,,-1200324473169576960,0.0,291.1774499807507,996.1123960048993,62.31102736032288,12,6,0.0,15,402325365759614,5,47.8,362.9490051269531,0.025300001725554466,0,0.0,0.0,,,,,0,,1,,
Raw,1050090,1052278000000,,,-1200324473169576960,0.0,291.1774499807507,996.1123960048993,62.31102736032288,12,10,0.0,15,402325370229615,6,38.6,-151.96937561035156,0.035100001841783524,0,0.0,0.0,,,,,0,,1,,
Raw,1050091,1052278000000,,,-1200324473169576960,0.0,291.1774499807507,996.1123960048993,62.31102736032288,12,13,0.0,15,402325376966432,11,33.7,619.4393310546875,0.04690000042319298,0,0.0,0.0,,,,,0,,1,,
Raw,1050092,1052278000000,,,-1200324473169576960,0.0,291.1774499807507,996.1123960048993,62.31102736032288,12,19,0.0,15,402325366601462,7,37.6,-95.0003662109375,0.029600001871585846,0,0.0,0.0,,,,,0,,1,,
Fix,gps,40.000175,118.000168,229.126160,0.000000,30.016001,1516290308000
NMEA,$GPGSV,1,1,04,06,11,050,48,10,25,312,39,13,53,102,34,19,14,097,38*76
,1525852057392
NMEA,$GLGSV,1,1,0,*79
,1525852057394
NMEA,$GAGSV,1,1,0,*74
,1525852057395
NMEA,$GPGSA,A,3,06,10,13,19,,,,,,,,,2.2,2.0,0.9,1*29
,1525852057406
NMEA,$GPVTG,,T,,M,0.0,N,0.0,K,A*23
,1525852057408
NMEA,$GPRMC,154508.00,A,4000.010477,N,11800.010054,E,0.0,,180118,6.3,W,A*09
,1525852057409
NMEA,$GPGGA,154508.00,4000.010477,N,11800.010054,E,1,04,2.0,232.3,M,-3.2,M,,*72
,1525852057410
Raw,1051062,1053278000000,,,-1200324473169575936,0.0,287.7504157368094,999.081776088191,58.9425636626915,12,6,0.0,15,402326365758396,5,47.4,362.7417907714844,0.025300001725554466,0,0.0,0.0,,,,,0,,1,,
Raw,1051062,1053278000000,,,-1200324473169575936,0.0,287.7504157368094,999.081776088191,58.9425636626915,12,10,0.0,15,402326370230118,7,37.9,-152.2060089111328,0.035600002855062485,0,0.0,0.0,,,,,0,,1,,
Raw,1051063,1053278000000,,,-1200324473169575936,0.0,287.7504157368094,999.081776088191,58.9425636626915,12,13,0.0,15,402326376964308,7,37.5,619.167724609375,0.044600002467632294,0,0.0,0.0,,,,,0,,1,,
Raw,1051063,1053278000000,,,-1200324473169575936,0.0,287.7504157368094,999.081776088191,58.9425636626915,12,19,0.0,15,402326366601785,7,37.1,-95.26123046875,0.029600001871585846,0,0.0,0.0,,,,,0,,1,,
Fix,gps,40.000174,118.000167,228.926636,0.000000,30.016001,1516290309000
NMEA,$GPGSV,1,1,04,06,11,050,47,10,25,312,38,13,53,102,38,19,14,097,37*7B
,1525852058387
NMEA,$GLGSV,1,1,0,*79
,1525852058394
NMEA,$GAGSV,1,1,0,*74
,1525852058395
NMEA,$GPGSA,A,3,06,10,13,19,,,,,,,,,2.2,2.0,0.9,1*29
,1525852058397
NMEA,$GPVTG,,T,,M,0.0,N,0.0,K,A*23
,1525852058398
NMEA,$GPRMC,154509.00,A,4000.010467,N,11800.010033,E,0.0,,180118,6.3,W,A*08
,1525852058398
NMEA,$GPGGA,154509.00,4000.010467,N,11800.010033,E,1,04,2.0,232.1,M,-3.2,M,,*71
,1525852058399
Fix,gps,40.000174,118.000167,228.749390,0.000000,30.016001,1516290310000
NMEA,$GPGSV,1,1,04,06,11,050,48,10,25,312,39,13,53,102,37,19,14,097,38*75
,1525852059387
NMEA,$GLGSV,1,1,0,*79
,1525852059390
NMEA,$GAGSV,1,1,0,*74
,1525852059391
NMEA,$GPGSA,A,3,06,10,13,19,,,,,,,,,2.2,2.0,0.9,1*29
,1525852059395
NMEA,$GPVTG,,T,,M,0.0,N,0.0,K,A*23
,1525852059396
Raw,1052069,1054278000000,,,-1200324473169574912,0.0,285.9332598745823,998.3867151622837,62.305307715364705,12,6,0.0,15,402327365757192,5,48.2,362.6444091796875,0.025300001725554466,0,0.0,0.0,,,,,0,,1,,
Raw,1052069,1054278000000,,,-1200324473169574912,0.0,285.9332598745823,998.3867151622837,62.305307715364705,12,10,0.0,15,402327370230620,6,38.6,-152.3196563720703,0.035100001841783524,0,0.0,0.0,,,,,0,,1,,
Raw,1052069,1054278000000,,,-1200324473169574912,0.0,285.9332598745823,998.3867151622837,62.305307715364705,12,13,0.0,15,402327376962250,8,36.5,619.0631713867188,0.04520000144839287,0,0.0,0.0,,,,,0,,1,,
Raw,1052070,1054278000000,,,-1200324473169574912,0.0,285.9332598745823,998.3867151622837,62.305307715364705,12,19,0.0,15,402327366602102,6,38.2,-95.40377044677734,0.029100000858306885,0,0.0,0.0,,,,,0,,1,,
NMEA,$GPRMC,154510.00,A,4000.010460,N,11800.010016,E,0.0,,180118,6.3,W,A*00
,1525852059396
NMEA,$GPGGA,154510.00,4000.010460,N,11800.010016,E,1,04,2.0,231.9,M,-3.2,M,,*72
,1525852059398
Fix,gps,40.000174,118.000167,228.791870,0.000000,30.016001,1516290311000
Raw,1053064,1055278000000,,,-1200324473169573888,0.0,283.6404019035399,997.8730541441045,62.30421977399891,12,6,0.0,15,402328365755983,5,47.6,362.4444580078125,0.025300001725554466,0,0.0,0.0,,,,,0,,1,,
Raw,1053064,1055278000000,,,-1200324473169573888,0.0,283.6404019035399,997.8730541441045,62.30421977399891,12,10,0.0,15,402328370231124,7,37.6,-152.54425048828125,0.035600002855062485,0,0.0,0.0,,,,,0,,1,,
Raw,1053065,1055278000000,,,-1200324473169573888,0.0,283.6404019035399,997.8730541441045,62.30421977399891,12,13,0.0,15,402328376960303,16,29.7,617.58349609375,0.050700001418590546,0,0.0,0.0,,,,,0,,1,,
Raw,1053067,1055278000000,,,-1200324473169573888,0.0,283.6404019035399,997.8730541441045,62.30421977399891,12,19,0.0,15,402328366602421,6,38.2,-95.66083526611328,0.029100000858306885,0,0.0,0.0,,,,,0,,1,,
NMEA,$GPGSV,1,1,04,06,11,050,48,10,25,312,38,13,53,102,30,19,14,097,38*73
,1525852060385
NMEA,$GLGSV,1,1,0,*79
,1525852060386
NMEA,$GAGSV,1,1,0,*74
,1525852060387
NMEA,$GPGSA,A,3,06,10,13,19,,,,,,,,,2.2,2.0,0.9,1*29
,1525852060389
NMEA,$GPVTG,,T,,M,0.0,N,0.0,K,A*23
,1525852060390
NMEA,$GPRMC,154511.00,A,4000.010464,N,11800.010024,E,0.0,,180118,6.3,W,A*04
,1525852060390
NMEA,$GPGGA,154511.00,4000.010464,N,11800.010024,E,1,04,2.0,232.0,M,-3.2,M,,*7C
,1525852060391
Fix,gps,40.000174,118.000167,228.750671,0.000000,30.016001,1516290312000
NMEA,$GPGSV,1,1,04,06,11,050,48,10,25,310,38,13,53,102,29,19,14,097,39*78
,1525852061387
NMEA,$GLGSV,1,1,0,*79
,1525852061390
NMEA,$GAGSV,1,1,0,*74
,1525852061393
NMEA,$GPGSA,A,3,06,10,13,19,,,,,,,,,2.2,2.0,0.9,1*29
,1525852061397
Raw,1054067,1056278000000,,,-1200324473169572864,0.0,282.072025584057,995.8295058008723,62.35273177934494,12,6,0.0,15,402329365754772,5,47.8,361.6147155761719,0.025300001725554466,0,0.0,0.0,,,,,0,,1,,
Raw,1054067,1056278000000,,,-1200324473169572864,0.0,282.072025584057,995.8295058008723,62.35273177934494,12,10,0.0,15,402329370231643,6,38.2,-153.3935089111328,0.035100001841783524,0,0.0,0.0,,,,,0,,1,,
Raw,1054067,1056278000000,,,-1200324473169572864,0.0,282.072025584057,995.8295058008723,62.35273177934494,12,13,0.0,15,402329376958148,16,29.2,618.0833740234375,0.4805000126361847,0,0.0,0.0,,,,,0,,1,,
Raw,1054068,1056278000000,,,-1200324473169572864,0.0,282.072025584057,995.8295058008723,62.35273177934494,12,19,0.0,15,402329366602733,6,38.5,-96.53756713867188,0.029100000858306885,0,0.0,0.0,,,,,0,,1,,
NMEA,$GPVTG,,T,,M,0.0,N,0.0,K,A*23
,1525852061397
NMEA,$GPRMC,154512.00,A,4000.010464,N,11800.010021,E,0.0,,180118,6.3,W,A*02
,1525852061397
NMEA,$GPGGA,154512.00,4000.010464,N,11800.010021,E,1,04,2.0,232.0,M,-3.2,M,,*7A
,1525852061398
Fix,gps,40.000175,118.000167,228.861145,0.000000,30.016001,1516290313000
NMEA,$GPGSV,1,1,04,06,11,050,48,10,25,310,38,13,53,102,28,19,14,097,38*78
,1525852062393
Raw,1055085,1057278000000,,,-1200324473169571840,0.0,284.9588927347213,993.95646522725,66.25464303110657,12,6,0.0,15,402330365753568,5,47.6,361.9496765136719,0.025300001725554466,0,0.0,0.0,,,,,0,,1,,
Raw,1055086,1057278000000,,,-1200324473169571840,0.0,284.9588927347213,993.95646522725,66.25464303110657,12,10,0.0,15,402330370232164,7,37.8,-153.06802368164062,0.035600002855062485,0,0.0,0.0,,,,,0,,1,,
Raw,1055086,1057278000000,,,-1200324473169571840,0.0,284.9588927347213,993.95646522725,66.25464303110657,12,13,0.0,15,402330376956270,17,28.2,618.3431396484375,0.05730000138282776,0,0.0,0.0,,,,,0,,1,,
Raw,1055087,1057278000000,,,-1200324473169571840,0.0,284.9588927347213,993.95646522725,66.25464303110657,12,19,0.0,15,402330366603054,7,37.9,-96.2479248046875,0.029600001871585846,0,0.0,0.0,,,,,0,,1,,
NMEA,$GLGSV,1,1,0,*79
,1525852062395
NMEA,$GAGSV,1,1,0,*74
,1525852062397
NMEA,$GPGSA,A,3,06,10,13,19,,,,,,,,,2.2,2.0,0.9,1*29
,1525852062404
NMEA,$GPVTG,,T,,M,0.0,N,0.0,K,A*23
,1525852062405
NMEA,$GPRMC,154513.00,A,4000.010472,N,11800.010033,E,0.0,,180118,6.3,W,A*07
,1525852062406
NMEA,$GPGGA,154513.00,4000.010472,N,11800.010033,E,1,04,2.0,232.1,M,-3.2,M,,*7E
,1525852062407
NMEA,$GPGSV,1,1,04,06,11,050,48,10,25,310,38,13,52,102,32,19,14,097,39*73
,1525852063391
NMEA,$GLGSV,1,1,0,*79
,1525852063400
NMEA,$GAGSV,1,1,0,*74
,1525852063402
Fix,gps,40.000175,118.000167,228.923340,0.000000,30.016001,1516290314000
Raw,1056084,1058278000000,,,-1200324473169570816,0.0,280.6515258271247,993.6320423844165,63.2116964799046,12,6,0.0,15,402331365752350,5,48.0,362.8907165527344,0.025300001725554466,0,0.0,0.0,,,,,0,,1,,
Raw,1056085,1058278000000,,,-1200324473169570816,0.0,280.6515258271247,993.6320423844165,63.2116964799046,12,10,0.0,15,402331370232672,6,38.4,-152.1724853515625,0.035100001841783524,0,0.0,0.0,,,,,0,,1,,
Raw,1056085,1058278000000,,,-1200324473169570816,0.0,280.6515258271247,993.6320423844165,63.2116964799046,12,13,0.0,15,402331376954118,13,31.9,619.1137084960938,0.04920000210404396,0,0.0,0.0,,,,,0,,1,,
Raw,1056086,1058278000000,,,-1200324473169570816,0.0,280.6515258271247,993.6320423844165,63.2116964799046,12,19,0.0,15,402331366603370,6,38.5,-95.36245727539062,0.029100000858306885,0,0.0,0.0,,,,,0,,1,,
NMEA,$GPGSA,A,3,06,10,13,19,,,,,,,,,2.2,2.0,0.9,1*29
,1525852063408
NMEA,$GPVTG,,T,,M,0.0,N,0.0,K,A*23
,1525852063408
NMEA,$GPRMC,154514.00,A,4000.010477,N,11800.010040,E,0.0,,180118,6.3,W,A*01
,1525852063409
NMEA,$GPGGA,154514.00,4000.010477,N,11800.010040,E,1,04,2.0,232.1,M,-3.2,M,,*78
,1525852063409
NMEA,$GPGSV,1,1,04,06,11,050,48,10,25,310,39,13,52,102,33,19,14,097,38*72
,1525852064392
NMEA,$GLGSV,1,1,0,*79
,1525852064394
NMEA,$GAGSV,1,1,0,*74
,1525852064403
Fix,gps,40.000175,118.000167,228.970947,0.000000,30.016001,1516290315000
Raw,1057090,1059278000000,,,-1200324473169569792,0.0,278.4217649605125,995.9930914640142,62.38105642823681,12,6,0.0,15,402332365751140,5,48.0,363.7117004394531,0.025300001725554466,0,0.0,0.0,,,,,0,,1,,
Raw,1057092,1059278000000,,,-1200324473169569792,0.0,278.4217649605125,995.9930914640142,62.38105642823681,12,10,0.0,15,402332370233169,6,38.9,-151.35777282714844,0.035100001841783524,0,0.0,0.0,,,,,0,,1,,
Raw,1057093,1059278000000,,,-1200324473169569792,0.0,278.4217649605125,995.9930914640142,62.38105642823681,12,13,0.0,15,402332376952034,11,33.3,619.9074096679688,0.04690000042319298,0,0.0,0.0,,,,,0,,1,,
Raw,1057094,1059278000000,,,-1200324473169569792,0.0,278.4217649605125,995.9930914640142,62.38105642823681,12,19,0.0,15,402332366603691,6,38.0,-94.59375762939453,0.029100000858306885,0,0.0,0.0,,,,,0,,1,,
NMEA,$GPGSA,A,3,06,10,13,19,,,,,,,,,2.2,2.0,0.9,1*29
,1525852064411
NMEA,$GPVTG,,T,,M,0.0,N,0.0,K,A*23
,1525852064414
NMEA,$GPRMC,154515.00,A,4000.010481,N,11800.010046,E,0.0,,180118,6.3,W,A*0F
,1525852064416
NMEA,$GPGGA,154515.00,4000.010481,N,11800.010046,E,1,04,2.0,232.2,M,-3.2,M,,*75
,1525852064419
NMEA,$GPGSV,1,1,04,06,11,050,49,10,25,310,39,13,52,102,33,19,14,097,39*72
,1525852065389
NMEA,$GLGSV,1,1,0,*79
,1525852065391
NMEA,$GAGSV,1,1,0,*74
,1525852065392
Fix,gps,40.000175,118.000168,229.052979,0.000000,30.016001,1516290316000
Raw,1058081,1060278000000,,,-1200324473169568768,0.0,276.8835984170437,998.4614331938619,62.29146986465944,12,6,0.0,15,402333365749926,5,48.7,363.9172058105469,0.025300001725554466,0,0.0,0.0,,,,,0,,1,,
Raw,1058082,1060278000000,,,-1200324473169568768,0.0,276.8835984170437,998.4614331938619,62.29146986465944,12,10,0.0,15,402333370233672,6,39.2,-151.17318725585938,0.03460000082850456,0,0.0,0.0,,,,,0,,1,,
Raw,1058083,1060278000000,,,-1200324473169568768,0.0,276.8835984170437,998.4614331938619,62.29146986465944,12,13,0.0,15,402333376949984,11,33.1,620.0825805664062,0.04690000042319298,0,0.0,0.0,,,,,0,,1,,
Raw,1058083,1060278000000,,,-1200324473169568768,0.0,276.8835984170437,998.4614331938619,62.29146986465944,12,19,0.0,15,402333366604004,6,38.6,-94.43930053710938,0.029100000858306885,0,0.0,0.0,,,,,0,,1,,
NMEA,$GPGSA,A,3,06,10,13,19,,,,,,,,,2.2,2.0,0.9,1*29
,1525852065404
NMEA,$GPVTG,,T,,M,0.0,N,0.0,K,A*23
,1525852065406
NMEA,$GPRMC,154516.00,A,4000.010487,N,11800.010056,E,0.0,,180118,6.3,W,A*0B
,1525852065407
NMEA,$GPGGA,154516.00,4000.010487,N,11800.010056,E,1,04,2.0,232.3,M,-3.2,M,,*70
,1525852065407
NMEA,$GPGSV,1,1,04,06,11,050,48,10,25,310,39,13,52,102,28,19,14,097,39*79
,1525852066389
NMEA,$GLGSV,1,1,0,*79
,1525852066391
Fix,gps,40.000175,118.000168,229.145874,0.000000,30.016001,1516290317000
Raw,1059084,1061278000000,,,-1200324473169567744,0.0,275.2765722107142,999.1196440823969,62.271307957126126,12,6,0.0,15,402334365748712,5,48.4,364.5154724121094,0.025300001725554466,0,0.0,0.0,,,,,0,,1,,
Raw,1059085,1061278000000,,,-1200324473169567744,0.0,275.2765722107142,999.1196440823969,62.271307957126126,12,10,0.0,15,402334370234170,6,39.4,-150.60342407226562,0.03460000082850456,0,0.0,0.0,,,,,0,,1,,
Raw,1059086,1061278000000,,,-1200324473169567744,0.0,275.2765722107142,999.1196440823969,62.271307957126126,12,13,0.0,15,402334376947999,19,27.6,620.7617797851562,0.06530000269412994,0,0.0,0.0,,,,,0,,1,,
Raw,1059087,1061278000000,,,-1200324473169567744,0.0,275.2765722107142,999.1196440823969,62.271307957126126,12,19,0.0,15,402334366604322,6,39.1,-93.89014434814453,0.028600001707673073,0,0.0,0.0,,,,,0,,1,,
NMEA,$GAGSV,1,1,0,*74
,1525852066399
NMEA,$GPGSA,A,3,06,10,13,19,,,,,,,,,2.2,2.0,0.9,1*29
,1525852066408
NMEA,$GPVTG,,T,,M,0.0,N,0.0,K,A*23
,1525852066410
NMEA,$GPRMC,154517.00,A,4000.010493,N,11800.010069,E,0.0,,180118,6.3,W,A*03
,1525852066411
NMEA,$GPGGA,154517.00,4000.010493,N,11800.010069,E,1,04,2.0,232.3,M,-3.2,M,,*78
,1525852066411
Raw,1060078,1062278000000,,,-1200324473169566720,0.0,275.092403171584,1000.5569991312854,63.469824883956946,12,6,0.0,15,402335365747498,5,48.9,363.2121276855469,0.025300001725554466,0,0.0,0.0,,,,,0,,1,,
Raw,1060080,1062278000000,,,-1200324473169566720,0.0,275.092403171584,1000.5569991312854,63.469824883956946,12,10,0.0,15,402335370234670,6,39.3,-151.9097137451172,0.03460000082850456,0,0.0,0.0,,,,,0,,1,,
Raw,1060080,1062278000000,,,-1200324473169566720,0.0,275.092403171584,1000.5569991312854,63.469824883956946,12,13,0.0,15,402335376945787,13,31.6,619.3101196289062,0.04920000210404396,0,0.0,0.0,,,,,0,,1,,
Raw,1060080,1062278000000,,,-1200324473169566720,0.0,275.092403171584,1000.5569991312854,63.469824883956946,12,19,0.0,15,402335366604630,6,39.3,-95.23523712158203,0.028600001707673073,0,0.0,0.0,,,,,0,,1,,
Fix,gps,40.000175,118.000168,229.139526,0.000000,30.016001,1516290318000
NMEA,$GPGSV,1,1,04,06,11,050,49,10,25,310,39,13,52,102,32,19,14,097,39*73
,1525852067388
NMEA,$GLGSV,1,1,0,*79
,1525852067390
NMEA,$GAGSV,1,1,0,*74
,1525852067391
NMEA,$GPGSA,A,3,06,10,13,19,,,,,,,,,2.2,2.0,0.9,1*29
,1525852067395
NMEA,$GPVTG,,T,,M,0.0,N,0.0,K,A*23
,1525852067396
NMEA,$GPRMC,154518.00,A,4000.010496,N,11800.010070,E,0.0,,180118,6.3,W,A*01
,1525852067397
NMEA,$GPGGA,154518.00,4000.010496,N,11800.010070,E,1,04,2.0,232.3,M,-3.2,M,,*7A
,1525852067404
NMEA,$GPGSV,1,1,04,06,11,050,49,10,25,310,40,13,52,102,35,19,14,097,39*7A
,1525852068397
NMEA,$GLGSV,1,1,0,*79
,1525852068399
NMEA,$GAGSV,1,1,0,*74
,1525852068399
Raw,1061070,1063278000000,,,-1200324473169565696,0.0,272.47669640928507,997.5133081991489,62.368191998753574,12,6,0.0,15,402336365746286,5,48.9,363.1313781738281,0.025300001725554466,0,0.0,0.0,,,,,0,,1,,
Raw,1061071,1063278000000,,,-1200324473169565696,0.0,272.47669640928507,997.5133081991489,62.368191998753574,12,10,0.0,15,402336370235178,6,39.9,-152.02919006347656,0.03460000082850456,0,0.0,0.0,,,,,0,,1,,
Raw,1061072,1063278000000,,,-1200324473169565696,0.0,272.47669640928507,997.5133081991489,62.368191998753574,12,13,0.0,15,402336376943613,10,34.9,619.1636962890625,0.04610000178217888,0,0.0,0.0,,,,,0,,1,,
Raw,1061073,1063278000000,,,-1200324473169565696,0.0,272.47669640928507,997.5133081991489,62.368191998753574,12,19,0.0,15,402336366604952,6,39.4,-95.37876892089844,0.028600001707673073,0,0.0,0.0,,,,,0,,1,,
Fix,gps,40.000175,118.000167,228.905762,0.000000,30.016001,1516290319000
NMEA,$GPGSA,A,3,06,10,13,19,,,,,,,,,2.2,2.0,0.9,1*29
,1525852068402
NMEA,$GPVTG,,T,,M,0.0,N,0.0,K,A*23
,1525852068403
NMEA,$GPRMC,154519.00,A,4000.010486,N,11800.010046,E,0.0,,180118,6.3,W,A*04
,1525852068403
NMEA,$GPGGA,154519.00,4000.010486,N,11800.010046,E,1,04,2.0,232.1,M,-3.2,M,,*7D
,1525852068404
Raw,1062080,1064278000000,,,-1200324473169564672,0.0,271.3394060265273,996.4392619441331,62.31939369304813,12,6,0.0,15,402337365745071,5,48.6,364.2006530761719,0.025300001725554466,0,0.0,0.0,,,,,0,,1,,
Raw,1062080,1064278000000,,,-1200324473169564672,0.0,271.3394060265273,996.4392619441331,62.31939369304813,12,10,0.0,15,402337370235684,6,39.3,-150.97915649414062,0.03460000082850456,0,0.0,0.0,,,,,0,,1,,
Raw,1062081,1064278000000,,,-1200324473169564672,0.0,271.3394060265273,996.4392619441331,62.31939369304813,12,13,0.0,15,402337376941513,6,38.2,620.1950073242188,0.04410000145435333,0,0.0,0.0,,,,,0,,1,,
Raw,1062081,1064278000000,,,-1200324473169564672,0.0,271.3394060265273,996.4392619441331,62.31939369304813,12,19,0.0,15,402337366605262,6,38.4,-94.35456085205078,0.029100000858306885,0,0.0,0.0,,,,,0,,1,,
Fix,gps,40.000175,118.000167,228.590454,0.000000,30.016001,1516290320000
NMEA,$GPGSV,1,1,04,06,11,050,49,10,25,310,39,13,52,102,38,19,14,097,38*78
,1525852069394
NMEA,$GLGSV,1,1,0,*79
,1525852069397
NMEA,$GAGSV,1,1,0,*74
,1525852069407
NMEA,$GPGSA,A,3,06,10,13,19,,,,,,,,,2.2,2.0,0.9,1*29
,1525852069409
NMEA,$GPVTG,,T,,M,0.0,N,0.0,K,A*23
,1525852069410
NMEA,$GPRMC,154520.00,A,4000.010474,N,11800.010013,E,0.0,,180118,6.3,W,A*03
,1525852069410
NMEA,$GPGGA,154520.00,4000.010474,N,11800.010013,E,1,04,2.0,231.8,M,-3.2,M,,*70
,1525852069410
Fix,gps,40.000174,118.000167,228.366699,0.000000,30.016001,1516290321000
Raw,1063079,1065278000000,,,-1200324473169563648,0.0,270.4896032810211,998.8689213143082,62.30419432507807,12,6,0.0,15,402338365743855,4,49.7,364.13726806640625,0.025300001725554466,0,0.0,0.0,,,,,0,,1,,
Raw,1063080,1065278000000,,,-1200324473169563648,0.0,270.4896032810211,998.8689213143082,62.30419432507807,12,10,0.0,15,402338370236185,6,38.7,-151.06820678710938,0.035100001841783524,0,0.0,0.0,,,,,0,,1,,
Raw,1063081,1065278000000,,,-1200324473169563648,0.0,270.4896032810211,998.8689213143082,62.30419432507807,12,13,0.0,15,402338376939455,11,33.4,620.0639038085938,0.04690000042319298,0,0.0,0.0,,,,,0,,1,,
Raw,1063081,1065278000000,,,-1200324473169563648,0.0,270.4896032810211,998.8689213143082,62.30419432507807,12,19,0.0,15,402338366605579,7,37.2,-94.47185516357422,0.029600001871585846,0,0.0,0.0,,,,,0,,1,,
NMEA,$GPGSV,1,1,04,06,11,050,50,10,25,310,39,13,52,102,33,19,14,097,37*74
,1525852070392
NMEA,$GLGSV,1,1,0,*79
,1525852070393
NMEA,$GAGSV,1,1,0,*74
,1525852070396
NMEA,$GPGSA,A,3,06,10,13,19,,,,,,,,,2.2,2.0,0.9,1*29
,1525852070401
NMEA,$GPVTG,,T,,M,0.0,N,0.0,K,A*23
,1525852070403
NMEA,$GPRMC,154521.00,A,4000.010465,N,11800.009991,E,0.0,,180118,6.3,W,A*09
,1525852070405
NMEA,$GPGGA,154521.00,4000.010465,N,11800.009991,E,1,04,2.0,231.6,M,-3.2,M,,*74
,1525852070407
NMEA,$GPGSV,1,1,04,06,11,050,49,10,25,310,39,13,52,102,34,19,14,097,38*74
,1525852071390
NMEA,$GLGSV,1,1,0,*79
,1525852071391
Fix,gps,40.000174,118.000166,228.209412,0.000000,30.016001,1516290322000
Raw,1064077,1066278000000,,,-1200324473169562624,0.0,270.08954202756286,998.6497552080576,62.29960079486695,12,6,0.0,15,402339365742638,5,48.9,365.1348571777344,0.025300001725554466,0,0.0,0.0,,,,,0,,1,,
Raw,1064078,1066278000000,,,-1200324473169562624,0.0,270.08954202756286,998.6497552080576,62.29960079486695,12,10,0.0,15,402339370236679,6,38.8,-150.07017517089844,0.035100001841783524,0,0.0,0.0,,,,,0,,1,,
Raw,1064079,1066278000000,,,-1200324473169562624,0.0,270.08954202756286,998.6497552080576,62.29960079486695,12,13,0.0,15,402339376937430,10,34.0,621.0687255859375,0.04610000178217888,0,0.0,0.0,,,,,0,,1,,
Raw,1064079,1066278000000,,,-1200324473169562624,0.0,270.08954202756286,998.6497552080576,62.29960079486695,12,19,0.0,15,402339366605879,7,37.5,-93.5106430053711,0.029600001871585846,0,0.0,0.0,,,,,0,,1,,
NMEA,$GAGSV,1,1,0,*74
,1525852071392
NMEA,$GPGSA,A,3,06,10,13,19,,,,,,,,,2.2,2.0,0.9,1*29
,1525852071401
NMEA,$GPVTG,,T,,M,0.0,N,0.0,K,A*23
,1525852071402
NMEA,$GPRMC,154522.00,A,4000.010463,N,11800.009977,E,0.0,,180118,6.3,W,A*04
,1525852071403
NMEA,$GPGGA,154522.00,4000.010463,N,11800.009977,E,1,04,2.0,231.4,M,-3.2,M,,*7B
,1525852071405
NMEA,$GPGSV,1,1,04,06,11,050,48,10,25,310,39,13,52,102,35,19,14,097,38*74
,1525852072392
NMEA,$GLGSV,1,1,0,*79
,1525852072394
NMEA,$GAGSV,1,1,0,*74
,1525852072398
Fix,gps,40.000174,118.000166,228.020203,0.000000,30.016001,1516290323000
NMEA,$GPGSA,A,3,06,10,13,19,,,,,,,,,2.2,2.0,0.9,1*29
,1525852072403
Raw,1065100,1067278000000,,,-1200324473169561600,0.0,270.0848563108593,1001.3466282470239,62.29753943227913,12,6,0.0,15,402340365741418,5,48.4,364.79833984375,0.025300001725554466,0,0.0,0.0,,,,,0,,1,,
Raw,1065101,1067278000000,,,-1200324473169561600,0.0,270.0848563108593,1001.3466282470239,62.29753943227913,12,10,0.0,15,402340370237176,6,38.7,-150.43789672851562,0.035100001841783524,0,0.0,0.0,,,,,0,,1,,
Raw,1065102,1067278000000,,,-1200324473169561600,0.0,270.0848563108593,1001.3466282470239,62.29753943227913,12,13,0.0,15,402340376935352,9,35.2,620.6636352539062,0.04560000076889992,0,0.0,0.0,,,,,0,,1,,
Raw,1065102,1067278000000,,,-1200324473169561600,0.0,270.0848563108593,1001.3466282470239,62.29753943227913,12,19,0.0,15,402340366606201,7,37.9,-93.9130630493164,0.029600001871585846,0,0.0,0.0,,,,,0,,1,,
NMEA,$GPVTG,,T,,M,0.0,N,0.0,K,A*23
,1525852072405
NMEA,$GPRMC,154523.00,A,4000.010456,N,11800.009959,E,0.0,,180118,6.3,W,A*0F
,1525852072407
NMEA,$GPGGA,154523.00,4000.010456,N,11800.009959,E,1,04,2.0,231.2,M,-3.2,M,,*76
,1525852072408
NMEA,$GPGSV,1,1,04,06,11,050,47,10,25,310,38,13,52,102,32,19,14,097,38*7D
,1525852073392
NMEA,$GLGSV,1,1,0,*79
,1525852073394
NMEA,$GAGSV,1,1,0,*74
,1525852073398
Fix,gps,40.000174,118.000166,228.008667,0.000000,30.016001,1516290324000
Raw,1066090,1068278000000,,,-1200324473169561088,0.0,270.4035141505301,1000.3447551315027,62.29773029918541,12,6,0.0,15,402341365740203,5,47.0,365.46490478515625,0.025300001725554466,0,0.0,0.0,,,,,0,,1,,
Raw,1066090,1068278000000,,,-1200324473169561088,0.0,270.4035141505301,1000.3447551315027,62.29773029918541,12,10,0.0,15,402341370237682,7,37.9,-149.7869110107422,0.035600002855062485,0,0.0,0.0,,,,,0,,1,,
Raw,1066090,1068278000000,,,-1200324473169561088,0.0,270.4035141505301,1000.3447551315027,62.29773029918541,12,13,0.0,15,402341376933354,13,31.9,621.2730712890625,0.04920000210404396,0,0.0,0.0,,,,,0,,1,,
Raw,1066091,1068278000000,,,-1200324473169561088,0.0,270.4035141505301,1000.3447551315027,62.29773029918541,12,19,0.0,15,402341366606506,7,37.9,-93.29986572265625,0.029600001871585846,0,0.0,0.0,,,,,0,,1,,
NMEA,$GPGSA,A,3,06,10,13,19,,,,,,,,,2.2,2.0,0.9,1*29
,1525852073403
NMEA,$GPVTG,,T,,M,0.0,N,0.0,K,A*23
,1525852073405
NMEA,$GPRMC,154524.00,A,4000.010460,N,11800.009961,E,0.0,,180118,6.3,W,A*06
,1525852073407
NMEA,$GPGGA,154524.00,4000.010460,N,11800.009961,E,1,04,2.0,231.2,M,-3.2,M,,*7F
,1525852073407
Fix,gps,40.000174,118.000166,228.031921,0.000000,30.016001,1516290325000
Raw,1067074,1069278000000,,,-1200324473169560064,0.0,269.89163598045707,1001.7635833660216,61.30709924444397,12,6,0.0,15,402342365738975,5,47.4,365.1517028808594,0.025300001725554466,0,0.0,0.0,,,,,0,,1,,
Raw,1067075,1069278000000,,,-1200324473169560064,0.0,269.89163598045707,1001.7635833660216,61.30709924444397,12,10,0.0,15,402342370238178,6,39.7,-150.13265991210938,0.03460000082850456,0,0.0,0.0,,,,,0,,1,,
Raw,1067076,1069278000000,,,-1200324473169560064,0.0,269.89163598045707,1001.7635833660216,61.30709924444397,12,13,0.0,15,402342376931325,16,29.3,620.9698486328125,0.050700001418590546,0,0.0,0.0,,,,,0,,1,,
Raw,1067077,1069278000000,,,-1200324473169560064,0.0,269.89163598045707,1001.7635833660216,61.30709924444397,12,19,0.0,15,402342366606836,6,38.4,-93.66590118408203,0.029100000858306885,0,0.0,0.0,,,,,0,,1,,
NMEA,$GPGSV,1,1,04,06,11,050,47,10,25,310,40,13,52,102,29,19,14,097,38*78
,1525852074389
NMEA,$GLGSV,1,1,0,*79
,1525852074391
NMEA,$GAGSV,1,1,0,*74
,1525852074392
NMEA,$GPGSA,A,3,06,10,13,19,,,,,,,,,2.2,2.0,0.9,1*29
,1525852074401
NMEA,$GPVTG,,T,,M,0.0,N,0.0,K,A*23
,1525852074403
NMEA,$GPRMC,154525.00,A,4000.010460,N,11800.009965,E,0.0,,180118,6.3,W,A*03
,1525852074404
NMEA,$GPGGA,154525.00,4000.010460,N,11800.009965,E,1,04,2.0,231.2,M,-3.2,M,,*7A
,1525852074406
NMEA,$GPGSV,1,1,04,06,11,050,50,10,25,310,42,13,52,102,42,19,14,097,40*7E
,1525852075391
NMEA,$GLGSV,1,1,0,*79
,1525852075393
NMEA,$GAGSV,1,1,0,*74
,1525852075395
Raw,1068083,1070278000000,,,-1200324473169559040,0.0,271.4704314712435,1000.4024732839615,62.34650315597002,12,6,0.0,15,402343365737758,4,50.1,365.538818359375,0.025300001725554466,0,0.0,0.0,,,,,0,,1,,
Raw,1068084,1070278000000,,,-1200324473169559040,0.0,271.4704314712435,1000.4024732839615,62.34650315597002,12,10,0.0,15,402343370238696,4,42.1,-149.75912475585938,0.03380000218749046,0,0.0,0.0,,,,,0,,1,,
Raw,1068084,1070278000000,,,-1200324473169559040,0.0,271.4704314712435,1000.4024732839615,62.34650315597002,12,13,0.0,15,402343376929060,5,41.6,621.3031005859375,0.04310000315308571,0,0.0,0.0,,,,,0,,1,,
Raw,1068084,1070278000000,,,-1200324473169559040,0.0,271.4704314712435,1000.4024732839615,62.34650315597002,12,19,0.0,15,402343366607128,6,39.6,-93.31884002685547,0.028600001707673073,0,0.0,0.0,,,,,0,,1,,
Fix,gps,40.000174,118.000166,227.718567,0.000000,30.016001,1516290326000
NMEA,$GPGSA,A,3,06,10,13,19,,,,,,,,,2.2,2.0,0.9,1*29
,1525852075405
NMEA,$GPVTG,,T,,M,0.0,N,0.0,K,A*23
,1525852075406
NMEA,$GPRMC,154526.00,A,4000.010448,N,11800.009931,E,0.0,,180118,6.3,W,A*0B
,1525852075407
NMEA,$GPGGA,154526.00,4000.010448,N,11800.009931,E,1,04,2.0,230.9,M,-3.2,M,,*78
,1525852075407
NMEA,$GPGSV,1,1,04,06,11,050,49,10,25,310,41,13,52,102,39,19,14,097,39*77
,1525852076393
NMEA,$GLGSV,1,1,0,*79
,1525852076395
NMEA,$GAGSV,1,1,0,*74
,1525852076396
Raw,1069077,1071278000000,,,-1200324473169558016,0.0,271.7245661187917,1000.9259066877423,62.30315091932375,12,6,0.0,15,402344365736538,5,48.6,365.142578125,0.025300001725554466,0,0.0,0.0,,,,,0,,1,,
Raw,1069078,1071278000000,,,-1200324473169558016,0.0,271.7245661187917,1000.9259066877423,62.30315091932375,12,10,0.0,15,402344370239184,5,40.6,-150.16612243652344,0.03440000116825104,0,0.0,0.0,,,,,0,,1,,
Raw,1069078,1071278000000,,,-1200324473169558016,0.0,271.7245661187917,1000.9259066877423,62.30315091932375,12,13,0.0,15,402344376927001,6,39.2,620.8609008789062,0.04360000044107437,0,0.0,0.0,,,,,0,,1,,
Raw,1069079,1071278000000,,,-1200324473169558016,0.0,271.7245661187917,1000.9259066877423,62.30315091932375,12,19,0.0,15,402344366607453,6,38.8,-93.75760650634766,0.029100000858306885,0,0.0,0.0,,,,,0,,1,,
Fix,gps,40.000174,118.000165,227.407104,0.000000,30.016001,1516290327000
NMEA,$GPGSA,A,3,06,10,13,19,,,,,,,,,2.2,2.0,0.9,1*29
,1525852076413
NMEA,$GPVTG,,T,,M,0.0,N,0.0,K,A*23
,1525852076414
NMEA,$GPRMC,154527.00,A,4000.010433,N,11800.009898,E,0.0,,180118,6.3,W,A*04
,1525852076416
NMEA,$GPGGA,154527.00,4000.010433,N,11800.009898,E,1,04,2.0,230.6,M,-3.2,M,,*78
,1525852076417
NMEA,$GPGSV,1,1,04,06,11,050,49,10,25,310,39,13,52,102,36,19,14,097,39*77
,1525852077390
NMEA,$GLGSV,1,1,0,*79
,1525852077392
NMEA,$GAGSV,1,1,0,*74
,1525852077394
Fix,gps,40.000174,118.000164,227.099854,0.000000,30.016001,1516290328000
Raw,1070081,1072278000000,,,-1200324473169556992,0.0,271.7568713705987,999.6124369854896,62.29850649127095,12,6,0.0,15,402345365735321,4,49.3,365.6078796386719,0.025300001725554466,0,0.0,0.0,,,,,0,,1,,
Raw,1070081,1072278000000,,,-1200324473169556992,0.0,271.7568713705987,999.6124369854896,62.29850649127095,12,10,0.0,15,402345370239672,6,39.4,-149.73524475097656,0.03460000082850456,0,0.0,0.0,,,,,0,,1,,
Raw,1070081,1072278000000,,,-1200324473169556992,0.0,271.7568713705987,999.6124369854896,62.29850649127095,12,13,0.0,15,402345376924906,8,36.1,621.2598266601562,0.04520000144839287,0,0.0,0.0,,,,,0,,1,,
Raw,1070082,1072278000000,,,-1200324473169556992,0.0,271.7568713705987,999.6124369854896,62.29850649127095,12,19,0.0,15,402345366607764,6,39.2,-93.36186981201172,0.028600001707673073,0,0.0,0.0,,,,,0,,1,,
NMEA,$GPGSA,A,3,06,10,13,19,,,,,,,,,2.2,2.0,0.9,1*29
,1525852077403
NMEA,$GPVTG,,T,,M,0.0,N,0.0,K,A*23
,1525852077405
NMEA,$GPRMC,154528.00,A,4000.010420,N,11800.009868,E,0.0,,180118,6.3,W,A*06
,1525852077406
NMEA,$GPGGA,154528.00,4000.010420,N,11800.009868,E,1,04,2.0,230.3,M,-3.2,M,,*7F
,1525852077407
NMEA,$GPGSV,1,1,04,06,11,050,49,10,25,310,39,13,52,102,38,19,14,097,40*77
,1525852078394
NMEA,$GLGSV,1,1,0,*79
,1525852078397
NMEA,$GAGSV,1,1,0,*74
,1525852078401
Raw,1071082,1073278000000,,,-1200324473169555968,0.0,271.9888580031693,1000.5386759082826,62.29640059307166,12,6,0.0,15,402346365734100,4,49.2,365.4405822753906,0.025300001725554466,0,0.0,0.0,,,,,0,,1,,
Raw,1071083,1073278000000,,,-1200324473169555968,0.0,271.9888580031693,1000.5386759082826,62.29640059307166,12,10,0.0,15,402346370240173,6,39.2,-149.90516662597656,0.03460000082850456,0,0.0,0.0,,,,,0,,1,,
Raw,1071083,1073278000000,,,-1200324473169555968,0.0,271.9888580031693,1000.5386759082826,62.29640059307166,12,13,0.0,15,402346376922866,7,37.5,621.0787963867188,0.044600002467632294,0,0.0,0.0,,,,,0,,1,,
Raw,1071084,1073278000000,,,-1200324473169555968,0.0,271.9888580031693,1000.5386759082826,62.29640059307166,12,19,0.0,15,402346366608069,6,39.7,-93.57390594482422,0.028600001707673073,0,0.0,0.0,,,,,0,,1,,
Fix,gps,40.000173,118.000164,226.827271,0.000000,30.016001,1516290329000
NMEA,$GPGSA,A,3,06,10,13,19,,,,,,,,,2.2,2.0,0.9,1*29
,1525852078411
NMEA,$GPVTG,,T,,M,0.0,N,0.0,K,A*23
,1525852078413
NMEA,$GPRMC,154529.00,A,4000.010409,N,11800.009841,E,0.0,,180118,6.3,W,A*07
,1525852078414
NMEA,$GPGGA,154529.00,4000.010409,N,11800.009841,E,1,04,2.0,230.0,M,-3.2,M,,*7D
,1525852078414
NMEA,$GPGSV,1,1,04,06,11,050,49,10,25,310,39,13,52,102,38,19,14,097,39*79
,1525852079390
Fix,gps,40.000173,118.000164,226.531616,0.000000,30.016001,1516290330000
Raw,1072078,1074278000000,,,-1200324473169554944,0.0,272.461591521278,999.965159028294,62.294899106742264,12,6,0.0,15,402347365732879,5,48.7,364.54608154296875,0.025300001725554466,0,0.0,0.0,,,,,0,,1,,
Raw,1072079,1074278000000,,,-1200324473169554944,0.0,272.461591521278,999.965159028294,62.294899106742264,12,10,0.0,15,402347370240678,6,38.7,-150.83045959472656,0.035100001841783524,0,0.0,0.0,,,,,0,,1,,
Raw,1072081,1074278000000,,,-1200324473169554944,0.0,272.461591521278,999.965159028294,62.294899106742264,12,13,0.0,15,402347376920781,7,37.8,620.139892578125,0.044600002467632294,0,0.0,0.0,,,,,0,,1,,
Raw,1072083,1074278000000,,,-1200324473169554944,0.0,272.461591521278,999.965159028294,62.294899106742264,12,19,0.0,15,402347366608381,6,38.8,-94.51557159423828,0.029100000858306885,0,0.0,0.0,,,,,0,,1,,
NMEA,$GLGSV,1,1,0,*79
,1525852079404
NMEA,$GAGSV,1,1,0,*74
,1525852079407
NMEA,$GPGSA,A,3,06,10,13,19,,,,,,,,,2.2,2.0,0.9,1*29
,1525852079410
NMEA,$GPVTG,,T,,M,0.0,N,0.0,K,A*23
,1525852079410
NMEA,$GPRMC,154530.00,A,4000.010396,N,11800.009810,E,0.0,,180118,6.3,W,A*0A
,1525852079411
NMEA,$GPGGA,154530.00,4000.010396,N,11800.009810,E,1,04,2.0,229.7,M,-3.2,M,,*7F
,1525852079411
NMEA,$GPGSV,1,1,04,06,11,050,49,10,25,310,39,13,52,102,37,19,14,097,39*76
,1525852080392
Raw,1073077,1075278000000,,,-1200324473169553920,0.0,273.13712053000927,997.0323235953247,62.29454282185054,12,6,0.0,15,402348365731667,5,48.6,365.2408142089844,0.025300001725554466,0,0.0,0.0,,,,,0,,1,,
Raw,1073078,1075278000000,,,-1200324473169553920,0.0,273.13712053000927,997.0323235953247,62.29454282185054,12,10,0.0,15,402348370241187,6,38.7,-150.15631103515625,0.035100001841783524,0,0.0,0.0,,,,,0,,1,,
Raw,1073079,1075278000000,,,-1200324473169553920,0.0,273.13712053000927,997.0323235953247,62.29454282185054,12,13,0.0,15,402348376918698,8,36.6,620.8056640625,0.04520000144839287,0,0.0,0.0,,,,,0,,1,,
Raw,1073080,1075278000000,,,-1200324473169553920,0.0,273.13712053000927,997.0323235953247,62.29454282185054,12,19,0.0,15,402348366608694,6,39.2,-93.87248992919922,0.028600001707673073,0,0.0,0.0,,,,,0,,1,,
NMEA,$GLGSV,1,1,0,*79
,1525852080400
NMEA,$GAGSV,1,1,0,*74
,1525852080401
Fix,gps,40.000173,118.000163,226.212952,0.000000,30.016001,1516290331000
NMEA,$GPGSA,A,3,06,10,13,19,,,,,,,,,2.2,2.0,0.9,1*29
,1525852080407
NMEA,$GPVTG,,T,,M,0.0,N,0.0,K,A*23
,1525852080407
NMEA,$GPRMC,154531.00,A,4000.010384,N,11800.009776,E,0.0,,180118,6.3,W,A*07
,1525852080408
NMEA,$GPGGA,154531.00,4000.010384,N,11800.009776,E,1,04,2.0,229.4,M,-3.2,M,,*71
,1525852080408
NMEA,$GPGSV,1,1,04,06,11,050,49,10,25,310,39,13,52,102,38,19,14,097,39*79
,1525852081390
NMEA,$GLGSV,1,1,0,*79
,1525852081392
NMEA,$GAGSV,1,1,0,*74
,1525852081394
Fix,gps,40.000173,118.000162,225.903015,0.000000,30.016001,1516290332000
Raw,1074083,1076278000000,,,-1200324473169552896,0.0,273.9611081779003,998.1506509725973,62.29447283731824,12,6,0.0,15,402349365730445,5,48.7,364.57232666015625,0.025300001725554466,0,0.0,0.0,,,,,0,,1,,
Raw,1074084,1076278000000,,,-1200324473169552896,0.0,273.9611081779003,998.1506509725973,62.29447283731824,12,10,0.0,15,402349370241678,6,38.6,-150.84591674804688,0.035100001841783524,0,0.0,0.0,,,,,0,,1,,
Raw,1074085,1076278000000,,,-1200324473169552896,0.0,273.9611081779003,998.1506509725973,62.29447283731824,12,13,0.0,15,402349376916626,7,37.8,620.0748291015625,0.044600002467632294,0,0.0,0.0,,,,,0,,1,,
Raw,1074085,1076278000000,,,-1200324473169552896,0.0,273.9611081779003,998.1506509725973,62.29447283731824,12,19,0.0,15,402349366609004,6,39.2,-94.59276580810547,0.028600001707673073,0,0.0,0.0,,,,,0,,1,,
NMEA,$GPGSA,A,3,06,10,13,19,,,,,,,,,2.2,2.0,0.9,1*29
,1525852081402
NMEA,$GPVTG,,T,,M,0.0,N,0.0,K,A*23
,1525852081404
NMEA,$GPRMC,154532.00,A,4000.010372,N,11800.009745,E,0.0,,180118,6.3,W,A*0D
,1525852081405
NMEA,$GPGGA,154532.00,4000.010372,N,11800.009745,E,1,04,2.0,229.1,M,-3.2,M,,*7E
,1525852081406
NMEA,$GPGSV,1,1,04,06,11,050,48,10,25,310,38,13,52,102,39,19,14,097,39*78
,1525852082393
NMEA,$GLGSV,1,1,0,*79
,1525852082396
NMEA,$GAGSV,1,1,0,*74
,1525852082397
Fix,gps,40.000173,118.000162,225.603333,0.000000,30.016001,1516290333000
Raw,1075075,1077278000000,,,-1200324473169551872,0.0,274.89912463352084,996.2599997457555,62.29428197041196,12,6,0.0,15,402350365729224,5,47.8,365.70941162109375,0.025300001725554466,0,0.0,0.0,,,,,0,,1,,
Raw,1075076,1077278000000,,,-1200324473169551872,0.0,274.89912463352084,996.2599997457555,62.29428197041196,12,10,0.0,15,402350370242173,7,37.9,-149.72836303710938,0.035600002855062485,0,0.0,0.0,,,,,0,,1,,
Raw,1075077,1077278000000,,,-1200324473169551872,0.0,274.89912463352084,996.2599997457555,62.29428197041196,12,13,0.0,15,402350376914557,6,39.1,621.1729125976562,0.04360000044107437,0,0.0,0.0,,,,,0,,1,,
Raw,1075078,1077278000000,,,-1200324473169551872,0.0,274.89912463352084,996.2599997457555,62.29428197041196,12,19,0.0,15,402350366609319,6,39.1,-93.49772644042969,0.028600001707673073,0,0.0,0.0,,,,,0,,1,,
NMEA,$GPGSA,A,3,06,10,13,19,,,,,,,,,2.2,2.0,0.9,1*29
,1525852082407
NMEA,$GPVTG,,T,,M,0.0,N,0.0,K,A*23
,1525852082408
NMEA,$GPRMC,154533.00,A,4000.010360,N,11800.009715,E,0.0,,180118,6.3,W,A*0A
,1525852082408
NMEA,$GPGGA,154533.00,4000.010360,N,11800.009715,E,1,04,2.0,228.8,M,-3.2,M,,*71
,1525852082409
NMEA,$GPGSV,1,1,04,06,11,050,48,10,25,310,38,13,52,102,41,19,14,097,39*77
,1525852083388
NMEA,$GLGSV,1,1,0,*79
,1525852083389
NMEA,$GAGSV,1,1,0,*74
,1525852083397
Raw,1076076,1078278000000,,,-1200324473169550848,0.0,275.92445258051157,998.8075385172486,62.29396385890149,12,6,0.0,15,402351365728002,5,48.3,365.7710266113281,0.025300001725554466,0,0.0,0.0,,,,,0,,1,,
Raw,1076077,1078278000000,,,-1200324473169550848,0.0,275.92445258051157,998.8075385172486,62.29396385890149,12,10,0.0,15,402351370242675,6,38.1,-149.68894958496094,0.035100001841783524,0,0.0,0.0,,,,,0,,1,,
Raw,1076079,1078278000000,,,-1200324473169550848,0.0,275.92445258051157,998.8075385172486,62.29396385890149,12,13,0.0,15,402351376912473,5,40.5,621.203857421875,0.04340000078082085,0,0.0,0.0,,,,,0,,1,,
Raw,1076080,1078278000000,,,-1200324473169550848,0.0,275.92445258051157,998.8075385172486,62.29396385890149,12,19,0.0,15,402351366609628,6,39.1,-93.4946517944336,0.028600001707673073,0,0.0,0.0,,,,,0,,1,,
Fix,gps,40.000172,118.000161,225.287170,0.000000,30.016001,1516290334000
NMEA,$GPGSA,A,3,06,10,13,19,,,,,,,,,2.2,2.0,0.9,1*29
,1525852083405
NMEA,$GPVTG,,T,,M,0.0,N,0.0,K,A*23
,1525852083407
NMEA,$GPRMC,154534.00,A,4000.010347,N,11800.009682,E,0.0,,180118,6.3,W,A*07
,1525852083408
NMEA,$GPGGA,154534.00,4000.010347,N,11800.009682,E,1,04,2.0,228.5,M,-3.2,M,,*71
,1525852083409
NMEA,$GPGSV,1,1,04,06,11,050,48,10,25,310,39,13,52,102,41,19,14,097,39*76
,1525852084395
NMEA,$GLGSV,1,1,0,*79
,1525852084398
NMEA,$GAGSV,1,1,0,*74
,1525852084401
Raw,1077076,1079278000000,,,-1200324473169549824,0.0,277.01150975190103,998.9161545113822,62.29368392077229,12,6,0.0,15,402352365726780,5,48.2,366.4877624511719,0.025300001725554466,0,0.0,0.0,,,,,0,,1,,
Raw,1077077,1079278000000,,,-1200324473169549824,0.0,277.01150975190103,998.9161545113822,62.29368392077229,12,10,0.0,15,402352370243177,6,38.5,-148.9938507080078,0.035100001841783524,0,0.0,0.0,,,,,0,,1,,
Raw,1077077,1079278000000,,,-1200324473169549824,0.0,277.01150975190103,998.9161545113822,62.29368392077229,12,13,0.0,15,402352376910390,5,40.9,621.8699340820312,0.04340000078082085,0,0.0,0.0,,,,,0,,1,,
Raw,1077079,1079278000000,,,-1200324473169549824,0.0,277.01150975190103,998.9161545113822,62.29368392077229,12,19,0.0,15,402352366609938,6,38.6,-92.83423614501953,0.029100000858306885,0,0.0,0.0,,,,,0,,1,,
Fix,gps,40.000172,118.000161,224.981628,0.000000,30.016001,1516290335000
NMEA,$GPGSA,A,3,06,10,13,19,,,,,,,,,2.2,2.0,0.9,1*29
,1525852084414
NMEA,$GPVTG,,T,,M,0.0,N,0.0,K,A*23
,1525852084415
NMEA,$GPRMC,154535.00,A,4000.010334,N,11800.009650,E,0.0,,180118,6.3,W,A*0D
,1525852084416
NMEA,$GPGGA,154535.00,4000.010334,N,11800.009650,E,1,04,2.0,228.2,M,-3.2,M,,*7C
,1525852084417
Fix,gps,40.000172,118.000160,224.664246,0.000000,30.016001,1516290336000
Raw,1078076,1080278000000,,,-1200324473169548800,0.0,278.1431539915502,1000.5040653759439,62.29331491142015,12,6,0.0,15,402353365725557,5,48.2,365.9936218261719,0.025300001725554466,0,0.0,0.0,,,,,0,,1,,
Raw,1078077,1080278000000,,,-1200324473169548800,0.0,278.1431539915502,1000.5040653759439,62.29331491142015,12,10,0.0,15,402353370243679,6,38.1,-149.50582885742188,0.035100001841783524,0,0.0,0.0,,,,,0,,1,,
Raw,1078078,1080278000000,,,-1200324473169548800,0.0,278.1431539915502,1000.5040653759439,62.29331491142015,12,13,0.0,15,402353376908308,7,37.1,621.3336181640625,0.044600002467632294,0,0.0,0.0,,,,,0,,1,,
Raw,1078079,1080278000000,,,-1200324473169548800,0.0,278.1431539915502,1000.5040653759439,62.29331491142015,12,19,0.0,15,402353366610264,6,38.8,-93.36996459960938,0.029100000858306885,0,0.0,0.0,,,,,0,,1,,
NMEA,$GPGSV,1,1,04,06,11,050,48,10,25,310,38,13,52,102,37,19,14,097,39*76
,1525852085388
NMEA,$GLGSV,1,1,0,*79
,1525852085390
NMEA,$GAGSV,1,1,0,*74
,1525852085391
NMEA,$GPGSA,A,3,06,10,13,19,,,,,,,,,2.2,2.0,0.9,1*29
,1525852085401
NMEA,$GPVTG,,T,,M,0.0,N,0.0,K,A*23
,1525852085403
NMEA,$GPRMC,154536.00,A,4000.010318,N,11800.009616,E,0.0,,180118,6.3,W,A*02
,1525852085405
NMEA,$GPGGA,154536.00,4000.010318,N,11800.009616,E,1,04,2.0,227.9,M,-3.2,M,,*77
,1525852085406
NMEA,$GPGSV,1,1,04,06,11,050,49,10,25,310,38,13,52,102,33,19,14,097,39*73
,1525852086387
Raw,1079062,1081278000000,,,-1200324473169547776,0.0,279.30986834689975,998.8256581488848,62.29292681537738,12,6,0.0,15,402354365724336,5,48.9,366.5841064453125,0.025300001725554466,0,0.0,0.0,,,,,0,,1,,
Raw,1079063,1081278000000,,,-1200324473169547776,0.0,279.30986834689975,998.8256581488848,62.29292681537738,12,10,0.0,15,402354370244174,6,38.2,-148.92971801757812,0.035100001841783524,0,0.0,0.0,,,,,0,,1,,
Raw,1079064,1081278000000,,,-1200324473169547776,0.0,279.30986834689975,998.8256581488848,62.29292681537738,12,13,0.0,15,402354376906267,11,33.0,621.7785034179688,0.04690000042319298,0,0.0,0.0,,,,,0,,1,,
Raw,1079064,1081278000000,,,-1200324473169547776,0.0,279.30986834689975,998.8256581488848,62.29292681537738,12,19,0.0,15,402354366610563,6,39.1,-92.8224105834961,0.028600001707673073,0,0.0,0.0,,,,,0,,1,,
